[{"id": 0, "name": "Dr. med. (I). Mahmood Abazari (Facharzt f\u00fcr Allgemeinmedizin)", "type": "doctor", "street": "Obere Marktstra\u00dfe\u00a09", "city": "Neumarkt i.d.OPf.", "postcode": "92318", "phone": "09181-220200", "email": null, "website": null, "comment": "Sprechzeiten auch nach Vereinbarung", "lat": 49.27801, "lon": 11.45947}, {"id": 1, "name": "Dr. med. Carmela Abbate-Schicktanz (Fach\u00e4rztin f\u00fcr Allgemeinmedizin)", "type": "doctor", "street": "Am K\u00f6chlinweiher\u00a01", "city": "Lindau (Bodensee)", "postcode": "88131", "phone": "08382-73768", "email": null, "website": null, "comment": null, "lat": 47.55872, "lon": 9.70287}, {"id": 2, "name": "Dr. med. Gudrun Abbushi (Fach\u00e4rztin f\u00fcr Allgemeinmedizin)", "type": "doctor", "street": "Bahnhofstra\u00dfe\u00a021", "city": "Oberhaching", "postcode": "82041", "phone": "089-6132885", "email": null, "website": null, "comment": "Sprechzeiten auch nach Vereinbarung", "lat": 48.01891, "lon": 11.587534999999999}, {"id": 3, "name": "Dr. med. Oliver Abbushi (Facharzt f\u00fcr Allgemeinmedizin)", "type": "doctor", "street": "Bahnhofstra\u00dfe\u00a021", "city": "Oberhaching", "postcode": "82041", "phone": "089-6132885", "email": null, "website": null, "comment": null, "lat": 48.01891, "lon": 11.58753}, {"id": 4, "name": "Dr. med. G\u00fcnter Abelein (Praktischer Arzt)", "type": "doctor", "street": "Sperberstra\u00dfe\u00a080", "city": "N\u00fcrnberg", "postcode": "90461", "phone": "0911-451960", "email": null, "website": null, "comment": "Sprechzeiten auch nach Vereinbarung", "lat": 49.43166, "lon": 11.08787}, {"id": 5, "name": "Dr. med. Gabriele Abele-Mayer (Fach\u00e4rztin f\u00fcr Allgemeinmedizin)", "type": "doctor", "street": "Hauptstra\u00dfe\u00a064", "city": "Ahorn", "postcode": "96482", "phone": "09561-7926588", "email": null, "website": "http://www.arztpraxis-ahorn-coburg.de", "comment": "Sprechzeiten auch nach Vereinbarung", "lat": 50.2363, "lon": 10.94546}, {"id": 6, "name": "Dr. med. Franziska Abendroth (Fach\u00e4rztin f\u00fcr Kinder- und Jugendmedizin)", "type": "doctor", "street": "Holzhauser Stra\u00dfe\u00a01", "city": "Landsberg am Lech", "postcode": "86899", "phone": "08191-22110", "email": null, "website": null, "comment": "Sprechzeiten auch nach Vereinbarung", "lat": 48.05055, "lon": 10.860695}, {"id": 7, "name": "Dr. med. Simon Abendroth (Facharzt f\u00fcr Kinder- und Jugendmedizin)", "type": "doctor", "street": "Holzhauser Stra\u00dfe\u00a01", "city": "Landsberg am Lech", "postcode": "86899", "phone": "08191-22110", "email": null, "website": null, "comment": "Sprechzeiten auch nach Vereinbarung", "lat": 48.05055, "lon": 10.86069}, {"id": 8, "name": "Dr. med. Carl-Michael Abernethy (Praktischer Arzt)", "type": "doctor", "street": "Bahnhofstra\u00dfe\u00a011", "city": "T\u00fcrkenfeld", "postcode": "82299", "phone": "08193-1634", "email": "praxis@abernethy.de", "website": null, "comment": "Sprechzeiten auch nach Vereinbarung", "lat": 48.10866, "lon": 11.08291}, {"id": 9, "name": "Gerlinde Abert (Fach\u00e4rztin f\u00fcr Allgemeinmedizin)", "type": "doctor", "street": "Ernst-Putz-Stra\u00dfe\u00a08", "city": "Bad Br\u00fcckenau", "postcode": "97769", "phone": "09741-3020", "email": null, "website": null, "comment": "Sprechzeiten auch nach Vereinbarung", "lat": 50.30878, "lon": 9.78427}, {"id": 10, "name": "Dr. med. Ambros Ablasser (Facharzt f\u00fcr Innere Medizin)", "type": "doctor", "street": "Bahnhofsplatz\u00a02", "city": "Landsberg am Lech", "postcode": "86899", "phone": "08191-91680", "email": null, "website": null, "comment": "Sprechzeiten auch nach Vereinbarung", "lat": 48.04754, "lon": 10.87234}, {"id": 11, "name": "Dr. med. Birgit Abla\u00dfmaier-St\u00fctzel (Praktische \u00c4rztin)", "type": "doctor", "street": "Hauptplatz\u00a0147", "city": "Landsberg am Lech", "postcode": "86899", "phone": "08191-21777", "email": null, "website": null, "comment": null, "lat": 48.04935, "lon": 10.87631}, {"id": 12, "name": "Anna Abraham (Fach\u00e4rztin f\u00fcr Innere Medizin)", "type": "doctor", "street": "Fritz-Baer-Stra\u00dfe\u00a01", "city": "M\u00fcnchen", "postcode": "81476", "phone": "089-751208", "email": null, "website": null, "comment": "Sprechzeiten auch nach Vereinbarung", "lat": 48.0886, "lon": 11.49607}, {"id": 13, "name": "Dr. med. Andreas Abramczuk (Facharzt f\u00fcr Allgemeinmedizin)", "type": "doctor", "street": "Maintalstra\u00dfe\u00a037", "city": "Aschaffenburg", "postcode": "63743", "phone": "06028-996644", "email": null, "website": null, "comment": "Sprechzeiten auch nach Vereinbarung", "lat": 49.93653, "lon": 9.13143}, {"id": 14, "name": "Helene Abramski (Fach\u00e4rztin f\u00fcr Allgemeinmedizin)", "type": "doctor", "street": "Luitpoldstra\u00dfe\u00a015", "city": "Plattling", "postcode": "94447", "phone": "09931-9291680\n                            \n                        \n                        \n                    \n                        \n                            \n                            \n                                09931-2616", "email": "info@praxis-luitpoldstrasse.de", "website": "http://www.praxis-plattling.de", "comment": null, "lat": 48.77854, "lon": 12.86795}, {"id": 15, "name": "Dr.med. Kristina Abredat (Fach\u00e4rztin f\u00fcr Kinder- und Jugendmedizin)", "type": "doctor", "street": "Rosenberger Stra\u00dfe\u00a099", "city": "Sulzbach-Rosenberg", "postcode": "92237", "phone": "09661-102100", "email": "praxis@kinderarzt-suro.de", "website": null, "comment": "Sprechzeiten auch nach Vereinbarung", "lat": 49.49942, "lon": 11.75256}, {"id": 16, "name": "Dr. med. Johannes Abspacher (Facharzt f\u00fcr Allgemeinmedizin)", "type": "doctor", "street": "Sch\u00f6merweg\u00a014", "city": "Pocking", "postcode": "94060", "phone": "08538-818", "email": null, "website": null, "comment": null, "lat": 48.40399, "lon": 13.38923}, {"id": 17, "name": "Andreas Abt (Facharzt f\u00fcr Allgemeinmedizin)", "type": "doctor", "street": "Schulgasse\u00a07", "city": "Burgheim", "postcode": "86666", "phone": "08432-204", "email": null, "website": null, "comment": "Sprechzeiten auch nach Vereinbarung", "lat": 48.70102, "lon": 11.02007}, {"id": 18, "name": "Juri Abt (Facharzt f\u00fcr Allgemeinmedizin)", "type": "doctor", "street": "Wendelsteinstra\u00dfe\u00a029", "city": "Burgkirchen a.d.Alz", "postcode": "84508", "phone": "08679-5805", "email": null, "website": null, "comment": "Sprechzeiten auch nach Vereinbarung", "lat": 48.16019, "lon": 12.72852}, {"id": 19, "name": "Ludmilla Abt (Fach\u00e4rztin f\u00fcr Allgemeinmedizin)", "type": "doctor", "street": "Breslauer Stra\u00dfe\u00a04", "city": "Traunreut", "postcode": "83301", "phone": "08669-2697\n                            \n                        \n                        \n                    \n                        \n                            \n                            \n                                08669-3567013", "email": null, "website": null, "comment": "Sprechzeiten auch nach Vereinbarung", "lat": 47.96735, "lon": 12.60113}, {"id": 20, "name": "Dr. med. Renate Abt (Fach\u00e4rztin f\u00fcr Kinder- und Jugendmedizin)", "type": "doctor", "street": "Querstra\u00dfe\u00a08", "city": "Wendelstein", "postcode": "90530", "phone": "09129-3377", "email": null, "website": null, "comment": "Sprechzeiten auch nach Vereinbarung", "lat": 49.35253, "lon": 11.1484}, {"id": 21, "name": "Dr. med. univ. Hani Abueyada (Facharzt f\u00fcr Innere Medizin)", "type": "doctor", "street": "Hainleinstra\u00dfe\u00a055", "city": "Niederwerrn", "postcode": "97464", "phone": "09721-40008", "email": null, "website": null, "comment": "Sprechzeiten auch nach Vereinbarung", "lat": 50.06445, "lon": 10.18351}, {"id": 22, "name": "Dr. med. Stefan Achatz (Facharzt f\u00fcr Allgemeinmedizin)", "type": "doctor", "street": "Miesbacher Stra\u00dfe\u00a05", "city": "Irschenberg", "postcode": "83737", "phone": "08062-1517", "email": null, "website": null, "comment": null, "lat": 47.83359, "lon": 11.91812}, {"id": 23, "name": "Dr. med. Stefan Achatz (Facharzt f\u00fcr Allgemeinmedizin)", "type": "doctor", "street": "Rotwandstra\u00dfe\u00a012", "city": "Miesbach", "postcode": "83714", "phone": "08025-3930\n                            \n                        \n                        \n                    \n                        \n                            \n                            \n                                08025-3938", "email": null, "website": null, "comment": null, "lat": 47.791, "lon": 11.8415}, {"id": 24, "name": "Andrea Achm\u00fcller (Fach\u00e4rztin f\u00fcr Allgemeinmedizin)", "type": "doctor", "street": "Deggendorfer Stra\u00dfe\u00a02", "city": "Metten", "postcode": "94526", "phone": "0991-9239", "email": null, "website": null, "comment": "Sprechzeiten auch nach Vereinbarung", "lat": 48.8538, "lon": 12.91582}, {"id": 25, "name": "Dr. (IM Temeschburg) Liana Ackermann (Fach\u00e4rztin f\u00fcr Allgemeinmedizin)", "type": "doctor", "street": "Brienner Stra\u00dfe\u00a054a", "city": "M\u00fcnchen", "postcode": "80333", "phone": "089-557533", "email": null, "website": null, "comment": "Sprechzeiten auch nach Vereinbarung", "lat": 48.14805, "lon": 11.55996}, {"id": 26, "name": "Dr. med. Christian Adam (Facharzt f\u00fcr Innere Medizin)", "type": "doctor", "street": "P\u00f6deldorfer Stra\u00dfe\u00a078", "city": "Bamberg", "postcode": "96052", "phone": "0951-16161", "email": null, "website": null, "comment": null, "lat": 49.90029, "lon": 10.910355}, {"id": 27, "name": "Dr. med. Helmut Adam (Facharzt f\u00fcr Innere Medizin)", "type": "doctor", "street": "P\u00f6deldorfer Stra\u00dfe\u00a078", "city": "Bamberg", "postcode": "96052", "phone": "0951-16161", "email": null, "website": null, "comment": "Sprechzeiten auch nach Vereinbarung", "lat": 49.90029, "lon": 10.91035}, {"id": 28, "name": "Dr. med. Karin Adam (Fach\u00e4rztin f\u00fcr Allgemeinmedizin)", "type": "doctor", "street": "Wettersteinplatz\u00a03", "city": "M\u00fcnchen", "postcode": "81547", "phone": "089-6970018", "email": null, "website": null, "comment": "Sprechzeiten auch nach Vereinbarung", "lat": 48.10948, "lon": 11.57592}, {"id": 29, "name": "Dr. med. Marie-Luise Adam (Praktische \u00c4rztin)", "type": "doctor", "street": "Sandstra\u00dfe\u00a027 A", "city": "N\u00fcrnberg", "postcode": "90443", "phone": null, "email": null, "website": null, "comment": null, "lat": 49.44575, "lon": 11.07266}, {"id": 30, "name": "Robert Adam (Facharzt f\u00fcr Allgemeinmedizin)", "type": "doctor", "street": "Brodkorbweg\u00a046", "city": "Kempten (Allg\u00e4u)", "postcode": "87437", "phone": "0831-73382", "email": null, "website": null, "comment": "Sprechzeiten auch nach Vereinbarung", "lat": 47.72974, "lon": 10.33021}, {"id": 31, "name": "Dr. med. Sibylle Adam (Fach\u00e4rztin f\u00fcr Allgemeinmedizin)", "type": "doctor", "street": "Obere Haardt\u00a012", "city": "Langfurth", "postcode": "91731", "phone": "09856-666", "email": null, "website": null, "comment": "Sprechzeiten auch nach Vereinbarung", "lat": 49.09745, "lon": 10.45754}, {"id": 32, "name": "Dr. med. Rainer Adamek (Facharzt f\u00fcr Allgemeinmedizin)", "type": "doctor", "street": "Prinzregentenplatz\u00a06", "city": "Langenzenn", "postcode": "90579", "phone": "09101-90850", "email": "mvz-langenzenn@doc-adamek.de", "website": null, "comment": null, "lat": 49.49496, "lon": 10.7947}, {"id": 33, "name": "Dr. med. Rainer Adamek (Facharzt f\u00fcr Allgemeinmedizin)", "type": "doctor", "street": "Erlanger Stra\u00dfe\u00a029 A", "city": "He\u00dfdorf", "postcode": "91093", "phone": "09135-8202", "email": "mvz-hessdorf@doc-adamek.de", "website": null, "comment": null, "lat": 49.62798, "lon": 10.90645}, {"id": 34, "name": "Dr. med. Rainer Adamek (Facharzt f\u00fcr Allgemeinmedizin)", "type": "doctor", "street": "Bernbacher Stra\u00dfe\u00a02", "city": "F\u00fcrth", "postcode": "90768", "phone": "0911-7520715", "email": null, "website": null, "comment": null, "lat": 49.48944, "lon": 10.9228}, {"id": 35, "name": "Dr. med. Rainer Adamek (Facharzt f\u00fcr Allgemeinmedizin)", "type": "doctor", "street": "Traubenstra\u00dfe\u00a015", "city": "Puschendorf", "postcode": "90617", "phone": "09101-1200", "email": null, "website": null, "comment": "Sprechzeiten auch nach Vereinbarung", "lat": 49.52253, "lon": 10.82664}, {"id": 36, "name": "Dr. med. Klaus Adams (Facharzt f\u00fcr Kinder- und Jugendmedizin)", "type": "doctor", "street": "Inselgraben\u00a06", "city": "Lindau (Bodensee)", "postcode": "88131", "phone": "08382-3370", "email": "dr.k.adams@t-online.de", "website": null, "comment": null, "lat": 47.54526, "lon": 9.68233}, {"id": 37, "name": "Dr. med. Michaela Adamski (Fach\u00e4rztin f\u00fcr Innere Medizin)", "type": "doctor", "street": "Hauptstra\u00dfe\u00a034", "city": "Garmisch-Partenkirchen", "postcode": "82467", "phone": "08821-948596", "email": null, "website": null, "comment": null, "lat": 47.49831, "lon": 11.10089}, {"id": 38, "name": "Dr. med. Michaela Adamski (Fach\u00e4rztin f\u00fcr Innere Medizin)", "type": "doctor", "street": "James-Loeb-Stra\u00dfe\u00a013", "city": "Murnau a.Staffelsee", "postcode": "82418", "phone": "08841-619292", "email": null, "website": null, "comment": "Sprechzeiten auch nach Vereinbarung", "lat": 47.67351, "lon": 11.20745}, {"id": 39, "name": "Dr. med. Angelica Adderson (Praktische \u00c4rztin)", "type": "doctor", "street": "Guttenberger Stra\u00dfe\u00a029", "city": "Reichenberg", "postcode": "97234", "phone": "0931-69444", "email": null, "website": null, "comment": "Sprechzeiten auch nach Vereinbarung", "lat": 49.73288, "lon": 9.90878}, {"id": 40, "name": "Dr. med. Melanie Adelhardt (Fach\u00e4rztin f\u00fcr Kinder- und Jugendmedizin)", "type": "doctor", "street": "Hans-Endres-Stra\u00dfe\u00a02", "city": "Hersbruck", "postcode": "91217", "phone": "09151-3444", "email": null, "website": null, "comment": "Sprechzeiten auch nach Vereinbarung", "lat": 49.5082, "lon": 11.42485}, {"id": 41, "name": "Dr. med. univ. Gerald Adelsberger (Facharzt f\u00fcr Innere Medizin)", "type": "doctor", "street": "Kirchenplatz\u00a02", "city": "Ampfing", "postcode": "84539", "phone": "08636-5555", "email": null, "website": null, "comment": null, "lat": 48.25525, "lon": 12.41647}, {"id": 42, "name": "Dr. med. Georg Aderbauer (Facharzt f\u00fcr Innere Medizin)", "type": "doctor", "street": "Moosb\u00fcrger Stra\u00dfe\u00a013", "city": "Weiden i.d.OPf.", "postcode": "92637", "phone": "0961-40190390", "email": null, "website": null, "comment": "Sprechzeiten auch nach Vereinbarung", "lat": 49.66009, "lon": 12.15376}, {"id": 43, "name": "Dr. med. Judith Aderbauer (Fach\u00e4rztin f\u00fcr Kinder- und Jugendmedizin\n                            Schwerpunkt Schwerpunkt Neurop\u00e4diatrie)", "type": "doctor", "street": "Schl\u00f6rplatz\u00a09", "city": "Weiden i.d.OPf.", "postcode": "92637", "phone": "0961-37577", "email": null, "website": null, "comment": "Sprechzeiten auch nach Vereinbarung", "lat": 49.67763, "lon": 12.16637}, {"id": 44, "name": "Dr. med. Andrea Adler (Fach\u00e4rztin f\u00fcr Allgemeinmedizin)", "type": "doctor", "street": "Fritz-Erler-Stra\u00dfe\u00a020", "city": "F\u00fcrth", "postcode": "90765", "phone": "0911-761411", "email": null, "website": null, "comment": "Sprechzeiten auch nach Vereinbarung", "lat": 49.51165, "lon": 10.978}, {"id": 45, "name": "Dr. med. Frederik Adler (Facharzt f\u00fcr Innere Medizin)", "type": "doctor", "street": "Dominikus-Zimmermann-Stra\u00dfe\u00a05", "city": "Landsberg am Lech", "postcode": "86899", "phone": "08191-3636", "email": null, "website": null, "comment": null, "lat": 48.04389, "lon": 10.87088}, {"id": 46, "name": "Dr. med. Julia Adler (Fach\u00e4rztin f\u00fcr Allgemeinmedizin)", "type": "doctor", "street": "Bahnhofsplatz\u00a05", "city": "Ammerndorf", "postcode": "90614", "phone": "09127-6821", "email": null, "website": null, "comment": "Sprechzeiten auch nach Vereinbarung", "lat": 49.42188, "lon": 10.85382}, {"id": 47, "name": "Dr. med. Gernot Adolph (Facharzt f\u00fcr Kinder- und Jugendmedizin\n                            Schwerpunkt Schwerpunkt Kinder-Pneumologie)", "type": "doctor", "street": "Georg-Friedrich-H\u00e4ndel-Stra\u00dfe\u00a09", "city": "Marktoberdorf", "postcode": "87616", "phone": "08342-98306", "email": null, "website": null, "comment": "Sprechzeiten auch nach Vereinbarung", "lat": 47.76674, "lon": 10.61491}, {"id": 48, "name": "Dr. med. Christian Adolphs (Facharzt f\u00fcr Kinder- und Jugendmedizin)", "type": "doctor", "street": "Schluderstra\u00dfe\u00a012", "city": "M\u00fcnchen", "postcode": "80634", "phone": "089-162168", "email": null, "website": null, "comment": "Sprechzeiten auch nach Vereinbarung", "lat": 48.15055, "lon": 11.53054}, {"id": 49, "name": "Dr. med. Dagmar Adorf (Fach\u00e4rztin f\u00fcr Innere Medizin)", "type": "doctor", "street": "Weitlstra\u00dfe\u00a066", "city": "M\u00fcnchen", "postcode": "80935", "phone": "089-3148646", "email": "praxis@klaubert.de", "website": "http://www.klaubert.de", "comment": null, "lat": 48.20907, "lon": 11.55476}, {"id": 50, "name": "Dr. med. Thomas Adrion (Facharzt f\u00fcr Innere Medizin)", "type": "doctor", "street": "Heiligengrabstra\u00dfe\u00a016", "city": "Hof", "postcode": "95028", "phone": "09281-1400790", "email": null, "website": null, "comment": null, "lat": 50.3222, "lon": 11.92445}, {"id": 51, "name": "Doctor en Medicina Orlando Aguiar P\u00e9rez (Facharzt f\u00fcr Allgemeinmedizin)", "type": "doctor", "street": "Habsburgerplatz\u00a01", "city": "M\u00fcnchen", "postcode": "80801", "phone": "089-341060", "email": null, "website": null, "comment": "Sprechzeiten auch nach Vereinbarung", "lat": 48.15828, "lon": 11.57963}, {"id": 52, "name": "Dr. med. univ. Seyed Hossein Aharinejad (Facharzt f\u00fcr Allgemeinmedizin)", "type": "doctor", "street": "Wintergasse\u00a02", "city": "Gaimersheim", "postcode": "85080", "phone": "08458-5828", "email": null, "website": null, "comment": null, "lat": 48.80878, "lon": 11.36944}, {"id": 53, "name": "Dr. med. Mohammad Ahmadi (Facharzt f\u00fcr Allgemeinmedizin)", "type": "doctor", "street": "Hauptstra\u00dfe\u00a070/72", "city": "Mainstockheim", "postcode": "97320", "phone": "09321-91990", "email": null, "website": null, "comment": "Sprechzeiten auch nach Vereinbarung", "lat": 49.77268, "lon": 10.15224}, {"id": 54, "name": "Rosemarie Ahnert (Fach\u00e4rztin f\u00fcr Kinder- und Jugendmedizin)", "type": "doctor", "street": "Stenglinstra\u00dfe\u00a02", "city": "Augsburg", "postcode": "86156", "phone": "0821-4009324", "email": null, "website": null, "comment": "Sprechzeiten auch nach Vereinbarung", "lat": 48.38453, "lon": 10.83803}, {"id": 55, "name": "Hans-Martin Ahr (Facharzt f\u00fcr Allgemeinmedizin)", "type": "doctor", "street": "Grassingerstra\u00dfe\u00a01", "city": "Allershausen", "postcode": "85391", "phone": "08166-9764", "email": null, "website": null, "comment": null, "lat": 48.434, "lon": 11.5992}, {"id": 56, "name": "Gert Ahrens (Facharzt f\u00fcr Allgemeinmedizin)", "type": "doctor", "street": "Miesbacher Stra\u00dfe\u00a011 a", "city": "Hausham", "postcode": "83734", "phone": "08026-1550", "email": null, "website": null, "comment": "Sprechzeiten auch nach Vereinbarung", "lat": 47.7552, "lon": 11.83391}, {"id": 57, "name": "Dr. med. Monika Aiblinger (\u00c4rztin)", "type": "doctor", "street": "Eduard-Fentsch-Weg\u00a019", "city": "M\u00fcnchen", "postcode": "81247", "phone": "089-887977", "email": null, "website": null, "comment": "Sprechzeiten auch nach Vereinbarung", "lat": 48.15917, "lon": 11.47323}, {"id": 58, "name": "Dr. med. Johannes Aicher (Facharzt f\u00fcr Kinder- und Jugendmedizin)", "type": "doctor", "street": "Bischof-Ulrich-Stra\u00dfe\u00a02", "city": "Bobingen", "postcode": "86399", "phone": "08234-3052", "email": null, "website": null, "comment": null, "lat": 48.27634, "lon": 10.84054}, {"id": 59, "name": "Susanne Aicher (Fach\u00e4rztin f\u00fcr Allgemeinmedizin)", "type": "doctor", "street": "Hauptstra\u00dfe\u00a015", "city": "Benningen", "postcode": "87734", "phone": "08331-3663", "email": null, "website": null, "comment": "Sprechzeiten auch nach Vereinbarung", "lat": 47.96726, "lon": 10.21184}, {"id": 60, "name": "Dr. med. Bettina Aichholzer (Fach\u00e4rztin f\u00fcr Kinder- und Jugendmedizin)", "type": "doctor", "street": "Chiemseestra\u00dfe\u00a05", "city": "Bad Endorf", "postcode": "83093", "phone": "08053-1655", "email": null, "website": null, "comment": null, "lat": 47.90402, "lon": 12.30395}, {"id": 61, "name": "Dr. med. Sabine Aichinger (Fach\u00e4rztin f\u00fcr Innere Medizin)", "type": "doctor", "street": "Eibacher Hauptstra\u00dfe\u00a052-54", "city": "N\u00fcrnberg", "postcode": "90451", "phone": "0911-645550", "email": null, "website": null, "comment": "Sprechzeiten auch nach Vereinbarung", "lat": 49.40372, "lon": 11.03479}, {"id": 62, "name": "Gabriele Aigner (Fach\u00e4rztin f\u00fcr Allgemeinmedizin)", "type": "doctor", "street": "Hauptstra\u00dfe\u00a022", "city": "Altfraunhofen", "postcode": "84169", "phone": "08705-2400", "email": null, "website": null, "comment": null, "lat": 48.44925, "lon": 12.17152}, {"id": 63, "name": "Dr. med. Ulrich-Michael Aigner (Facharzt f\u00fcr Allgemeinmedizin)", "type": "doctor", "street": "Fr\u00f6schau\u00a036", "city": "Sulzbach-Rosenberg", "postcode": "92237", "phone": "09661-8761611", "email": null, "website": null, "comment": "Sprechzeiten auch nach Vereinbarung", "lat": 49.49991, "lon": 11.75317}, {"id": 64, "name": "Dr. med. Ulrich-Michael Aigner (Facharzt f\u00fcr Allgemeinmedizin)", "type": "doctor", "street": "Marienstra\u00dfe\u00a09", "city": "Amberg", "postcode": "92224", "phone": "09621-960857", "email": null, "website": null, "comment": "Sprechzeiten auch nach Vereinbarung", "lat": 49.44592, "lon": 11.86566}, {"id": 65, "name": "G\u00fcler Akin-Erdinc (Fach\u00e4rztin f\u00fcr Kinder- und Jugendmedizin)", "type": "doctor", "street": "Bahnhofplatz\u00a06", "city": "F\u00fcrth", "postcode": "90762", "phone": "0911-770100", "email": null, "website": null, "comment": "Sprechzeiten auch nach Vereinbarung", "lat": 49.47077, "lon": 10.992094999999999}, {"id": 66, "name": "Dr. med. Aysen Aksungur (Fach\u00e4rztin f\u00fcr Kinder- und Jugendmedizin)", "type": "doctor", "street": "Bahnhofplatz\u00a06", "city": "F\u00fcrth", "postcode": "90762", "phone": "0911-770100", "email": null, "website": null, "comment": "Sprechzeiten auch nach Vereinbarung", "lat": 49.47077, "lon": 10.99209}, {"id": 67, "name": "Dr. med. Muharrem Akyol (Facharzt f\u00fcr Innere Medizin)", "type": "doctor", "street": "Karl-Stieler-Stra\u00dfe\u00a06", "city": "Ottobrunn", "postcode": "85521", "phone": "089-603803", "email": null, "website": null, "comment": "Sprechzeiten auch nach Vereinbarung", "lat": 48.06323, "lon": 11.68013}, {"id": 68, "name": "Dr. med. Yasir Al Diek (Arzt)", "type": "doctor", "street": "Schillerstra\u00dfe\u00a07", "city": "M\u00fcnchen", "postcode": "80336", "phone": "089-5438552", "email": null, "website": null, "comment": "Sprechzeiten auch nach Vereinbarung", "lat": 48.13833, "lon": 11.56134}, {"id": 69, "name": "Doktor in Humanmedizin/Univ. Damaskus Nabil Al Halabi (Facharzt f\u00fcr Innere Medizin)", "type": "doctor", "street": "Langgasse\u00a03", "city": "Wemding", "postcode": "86650", "phone": "09092-6334", "email": null, "website": null, "comment": null, "lat": 48.87352, "lon": 10.72329}, {"id": 70, "name": "Amjad Alarbid (Facharzt f\u00fcr Kinder- und Jugendmedizin)", "type": "doctor", "street": "Brauhausstra\u00dfe\u00a017", "city": "Ansbach", "postcode": "91522", "phone": "0981-4823830\n                            \n                        \n                        \n                    \n                        \n                            \n                            \n                                0981-48238323", "email": "MVZ@DiakonieNeuendettelsau.de", "website": "http://www.mvz-an.de", "comment": null, "lat": 49.30818, "lon": 10.56994}, {"id": 71, "name": "Dr. med. Claudia Alber (Fach\u00e4rztin f\u00fcr Allgemeinmedizin)", "type": "doctor", "street": "Memminger Stra\u00dfe\u00a0149", "city": "Neu-Ulm", "postcode": "89231", "phone": "0731-984820", "email": null, "website": null, "comment": null, "lat": 48.37035, "lon": 10.00806}, {"id": 72, "name": "Dr. Szilvia Albers (Fach\u00e4rztin f\u00fcr Allgemeinmedizin)", "type": "doctor", "street": "Putzbrunner Stra\u00dfe\u00a029", "city": "Ottobrunn", "postcode": "85521", "phone": "089-6099169", "email": null, "website": null, "comment": "Sprechzeiten auch nach Vereinbarung", "lat": 48.06722, "lon": 11.66619}, {"id": 73, "name": "Dr. med. Edwin Albert (Facharzt f\u00fcr Allgemeinmedizin)", "type": "doctor", "street": "Kreuzbergstra\u00dfe\u00a05", "city": "Marktheidenfeld", "postcode": "97828", "phone": "09391-98170", "email": null, "website": null, "comment": "Sprechzeiten auch nach Vereinbarung", "lat": 49.84385, "lon": 9.60402}, {"id": 74, "name": "Dr. med. Ernst Albert (Facharzt f\u00fcr Allgemeinmedizin)", "type": "doctor", "street": "Hainstra\u00dfe\u00a01", "city": "Bamberg", "postcode": "96047", "phone": "0951-202224", "email": null, "website": null, "comment": "Sprechzeiten auch nach Vereinbarung", "lat": 49.89083, "lon": 10.89324}, {"id": 75, "name": "Dr. med. Gabriele Albert (Fach\u00e4rztin f\u00fcr Allgemeinmedizin)", "type": "doctor", "street": "Mergentheimer Stra\u00dfe\u00a0120", "city": "W\u00fcrzburg", "postcode": "97084", "phone": "0931-3593990", "email": null, "website": null, "comment": "Sprechzeiten auch nach Vereinbarung", "lat": 49.76764, "lon": 9.93996}, {"id": 76, "name": "Dr. med. Julia Albert (Fach\u00e4rztin f\u00fcr Allgemeinmedizin)", "type": "doctor", "street": "Dorfstra\u00dfe\u00a029", "city": "Unterammergau", "postcode": "82497", "phone": "08822-7255", "email": null, "website": null, "comment": "Sprechzeiten auch nach Vereinbarung", "lat": 47.6143, "lon": 11.02833}, {"id": 77, "name": "Paul Alberti (Facharzt f\u00fcr Allgemeinmedizin)", "type": "doctor", "street": "Finsinger Weg\u00a014", "city": "Unterhaching", "postcode": "82008", "phone": "089-6114334", "email": null, "website": null, "comment": null, "lat": 48.06198, "lon": 11.62708}, {"id": 78, "name": "Dr. med. Claudia Albrecht (Fach\u00e4rztin f\u00fcr Innere Medizin)", "type": "doctor", "street": "Moraltpark\u00a01 e", "city": "Bad T\u00f6lz", "postcode": "83646", "phone": "08041-41515", "email": null, "website": null, "comment": null, "lat": 47.7518, "lon": 11.5614}, {"id": 79, "name": "Qassim Al Saadawi (Facharzt f\u00fcr Allgemeinmedizin)", "type": "doctor", "street": "Putzbrunner Stra\u00dfe\u00a05", "city": "M\u00fcnchen", "postcode": "81737", "phone": "089-6370928", "email": null, "website": null, "comment": "Sprechzeiten auch nach Vereinbarung", "lat": 48.10009, "lon": 11.63201}, {"id": 80, "name": "Dr. med. Helmuth Albrecht (Facharzt f\u00fcr Allgemeinmedizin)", "type": "doctor", "street": "Birkenweg\u00a010", "city": "Bad F\u00fcssing", "postcode": "94072", "phone": "08531-21655", "email": null, "website": null, "comment": null, "lat": 48.34844, "lon": 13.31418}, {"id": 81, "name": "Dr. med. Katharina Albrecht (Fach\u00e4rztin f\u00fcr Innere Medizin)", "type": "doctor", "street": "F\u00fcrther Stra\u00dfe\u00a06 A", "city": "N\u00fcrnberg", "postcode": "90429", "phone": null, "email": null, "website": null, "comment": null, "lat": 49.4497, "lon": 11.06258}, {"id": 82, "name": "Dr. med. Katharina Albrecht (Fach\u00e4rztin f\u00fcr Innere Medizin)", "type": "doctor", "street": "Hauptstra\u00dfe\u00a054", "city": "Stein", "postcode": "90547", "phone": "0911-6887096", "email": null, "website": null, "comment": "Sprechzeiten auch nach Vereinbarung", "lat": 49.41299, "lon": 11.01183}, {"id": 83, "name": "Dr. med. Rainer Albrecht (Facharzt f\u00fcr Allgemeinmedizin)", "type": "doctor", "street": "Kirchstra\u00dfe\u00a05", "city": "Oberostendorf", "postcode": "86869", "phone": "08344-505", "email": null, "website": null, "comment": null, "lat": 47.94318, "lon": 10.74194}, {"id": 84, "name": "Dr. med. Tobias Albrecht (Facharzt f\u00fcr Allgemeinmedizin)", "type": "doctor", "street": "Birkenweg\u00a010", "city": "Bad F\u00fcssing", "postcode": "94072", "phone": "08531-21655", "email": null, "website": null, "comment": "Sprechzeiten auch nach Vereinbarung", "lat": 48.34844, "lon": 13.31418}, {"id": 85, "name": "Ina Albrich (Fach\u00e4rztin f\u00fcr Kinder- und Jugendmedizin)", "type": "doctor", "street": "Kommerzienrat-Meindl-Stra\u00dfe\u00a01", "city": "Dorfen", "postcode": "84405", "phone": "08081-2319", "email": "info@kinderarzt-dorfen.de", "website": "http://www.kinderarzt-dorfen.de", "comment": "Sprechzeiten auch nach Vereinbarung", "lat": 48.2681, "lon": 12.1546}, {"id": 86, "name": "Dr. med. Ulrike Alcock (Fach\u00e4rztin f\u00fcr Allgemeinmedizin)", "type": "doctor", "street": "Rosenkavalierplatz\u00a017", "city": "M\u00fcnchen", "postcode": "81925", "phone": "089-4470722", "email": null, "website": null, "comment": "Sprechzeiten auch nach Vereinbarung", "lat": 48.15192, "lon": 11.61972}, {"id": 87, "name": "Dr. med. Sascha Aleksic (Facharzt f\u00fcr Allgemeinmedizin)", "type": "doctor", "street": "Erdinger Stra\u00dfe\u00a032", "city": "Freising", "postcode": "85356", "phone": "08161-86081", "email": null, "website": null, "comment": null, "lat": 48.39544, "lon": 11.75634}, {"id": 88, "name": "Alexander Alexandrov (Facharzt f\u00fcr Allgemeinmedizin)", "type": "doctor", "street": "Bahnhofstra\u00dfe\u00a041", "city": "Buchloe", "postcode": "86807", "phone": "08241-1844", "email": "komarek-altenbuchner@t-online.de", "website": null, "comment": null, "lat": 48.03462, "lon": 10.72011}, {"id": 89, "name": "Dr.(IMF Bukarest) Daniela Alexandru-Kunert (Fach\u00e4rztin f\u00fcr Allgemeinmedizin)", "type": "doctor", "street": "Wiesenstra\u00dfe\u00a02", "city": "Neuenmarkt", "postcode": "95339", "phone": "09227-97012", "email": null, "website": null, "comment": null, "lat": 50.09356, "lon": 11.58501}, {"id": 90, "name": "Dr. med. J\u00fcrgen Alexy (Facharzt f\u00fcr Innere Medizin)", "type": "doctor", "street": "Baierbrunner Stra\u00dfe\u00a087", "city": "M\u00fcnchen", "postcode": "81379", "phone": "089-52038630", "email": "baierbrunner@praxis-grassl.de", "website": "http://www.praxis-grassl.de", "comment": null, "lat": 48.09227, "lon": 11.53032}, {"id": 91, "name": "Dr. med. J\u00fcrgen Alexy (Facharzt f\u00fcr Innere Medizin)", "type": "doctor", "street": "Boschetsrieder Stra\u00dfe\u00a072", "city": "M\u00fcnchen", "postcode": "81379", "phone": "089-7488940", "email": "info@praxis-grassl.de", "website": "http://www.praxis-grassl.de", "comment": null, "lat": 48.09997, "lon": 11.52781}, {"id": 92, "name": "Dr. med. Laila Al-Ghoul (Fach\u00e4rztin f\u00fcr Allgemeinmedizin)", "type": "doctor", "street": "K\u00fchbachstra\u00dfe\u00a07", "city": "M\u00fcnchen", "postcode": "81543", "phone": "089-25544870", "email": null, "website": "http://www.praxisinderau.de", "comment": "Sprechzeiten auch nach Vereinbarung", "lat": 48.11706, "lon": 11.5726}, {"id": 93, "name": "Jorj Kadem Al-Iassin (Praktischer Arzt)", "type": "doctor", "street": "Plinganserstra\u00dfe\u00a036", "city": "M\u00fcnchen", "postcode": "81369", "phone": "089-597711", "email": null, "website": null, "comment": null, "lat": 48.11823, "lon": 11.54012}, {"id": 94, "name": "Dr. med. Nelly Al-Khatib (Fach\u00e4rztin f\u00fcr Innere Medizin)", "type": "doctor", "street": "Marktplatz\u00a04", "city": "F\u00fcrstenzell", "postcode": "94081", "phone": "08502-264", "email": null, "website": null, "comment": null, "lat": 48.52241, "lon": 13.31744}, {"id": 95, "name": "Svitlana Alles (Fach\u00e4rztin f\u00fcr Allgemeinmedizin)", "type": "doctor", "street": "Gablonzer Ring\u00a013", "city": "Kaufbeuren", "postcode": "87600", "phone": "08341-65000", "email": null, "website": null, "comment": null, "lat": 47.91299, "lon": 10.63821}, {"id": 96, "name": "Dr. med. Rotraut Allgayer (Fach\u00e4rztin f\u00fcr Allgemeinmedizin)", "type": "doctor", "street": "Johannes-Auer-Stra\u00dfe\u00a05", "city": "Denkendorf", "postcode": "85095", "phone": "08466-1011\n                            \n                        \n                        \n                    \n                        \n                            \n                            \n                                0171-8322570", "email": "info@allgemeinarztpraxis.info", "website": "http://www.allgemeinarztpraxis.info", "comment": "Sprechzeiten auch nach Vereinbarung", "lat": 48.92968, "lon": 11.45699}, {"id": 97, "name": "Sibylle Allmaras (Fach\u00e4rztin f\u00fcr Allgemeinmedizin)", "type": "doctor", "street": "Bavariaring\u00a045", "city": "M\u00fcnchen", "postcode": "80336", "phone": "089-55066910", "email": "info@mprokt.de", "website": "http://www.enddarmzentrum-mb.de", "comment": null, "lat": 48.12686, "lon": 11.55002}, {"id": 98, "name": "Dr. med. Nadine Allmaras-Cr\u00fcger (Fach\u00e4rztin f\u00fcr Allgemeinmedizin)", "type": "doctor", "street": "Eschenstra\u00dfe\u00a02", "city": "Taufkirchen", "postcode": "82024", "phone": "089-6145100", "email": null, "website": null, "comment": "Sprechzeiten auch nach Vereinbarung", "lat": 48.05182, "lon": 11.60632}, {"id": 99, "name": "Angelika Allstadt (Fach\u00e4rztin f\u00fcr Allgemeinmedizin)", "type": "doctor", "street": "Hauptstra\u00dfe\u00a020", "city": "Mengkofen", "postcode": "84152", "phone": "08733-1767", "email": "GP.Mengkofen@t-online.de", "website": null, "comment": "Sprechzeiten auch nach Vereinbarung", "lat": 48.72, "lon": 12.43972}, {"id": 100, "name": "Dr. (UMF Neumarkt) Angela-Maria Almen (Fach\u00e4rztin f\u00fcr Allgemeinmedizin)", "type": "doctor", "street": "Graben\u00e4cker\u00a02", "city": "Hemhofen", "postcode": "91334", "phone": "09195-2262", "email": null, "website": null, "comment": "Sprechzeiten auch nach Vereinbarung", "lat": 49.68537, "lon": 10.94291}, {"id": 101, "name": "Dr.(IMF Iassy) Imad Al-Sammak (Praktischer Arzt)", "type": "doctor", "street": "Ludwig-Feuerbach-Stra\u00dfe\u00a071", "city": "N\u00fcrnberg", "postcode": "90489", "phone": "0911-5818850", "email": null, "website": null, "comment": null, "lat": 49.46128, "lon": 11.10142}, {"id": 102, "name": "Dr. med. Andrea Alt (Fach\u00e4rztin f\u00fcr Innere Medizin)", "type": "doctor", "street": "Gablonzer Ring\u00a04", "city": "Kaufbeuren", "postcode": "87600", "phone": "08341-65757", "email": null, "website": null, "comment": "Sprechzeiten auch nach Vereinbarung", "lat": 47.9125, "lon": 10.63586}, {"id": 103, "name": "Dr./Univ. Padova Armin Altenbuchner (Facharzt f\u00fcr Allgemeinmedizin)", "type": "doctor", "street": "Am Eichet\u00a01", "city": "Neuburg a.d.Donau", "postcode": "86633", "phone": "08431-45410", "email": null, "website": null, "comment": null, "lat": 48.71882, "lon": 11.22399}, {"id": 104, "name": "Hans-J\u00fcrgen Altenburg (Facharzt f\u00fcr Allgemeinmedizin)", "type": "doctor", "street": "Eichenstra\u00dfe\u00a036", "city": "Ipsheim", "postcode": "91472", "phone": "09846-889", "email": "praxis-altenburg@t-online.de", "website": "http://www.praxis-altenburg.de", "comment": "Sprechzeiten auch nach Vereinbarung", "lat": 49.52624, "lon": 10.49218}, {"id": 105, "name": "Annegret Altendorfer (Fach\u00e4rztin f\u00fcr Allgemeinmedizin)", "type": "doctor", "street": "Brunngasse\u00a01", "city": "Kelheim", "postcode": "93309", "phone": "09441-29730", "email": null, "website": null, "comment": "Sprechzeiten auch nach Vereinbarung", "lat": 48.91885, "lon": 11.87103}, {"id": 106, "name": "Josef Altenhofer (Facharzt f\u00fcr Allgemeinmedizin)", "type": "doctor", "street": "Preysingplatz\u00a07", "city": "Plattling", "postcode": "94447", "phone": "0170-3016460", "email": "josef.altenhofer@web.de", "website": null, "comment": null, "lat": 48.77701, "lon": 12.87207}, {"id": 107, "name": "Dr. med. Anne Althammer (Fach\u00e4rztin f\u00fcr Allgemeinmedizin)", "type": "doctor", "street": "Sankt-Georgs-Platz\u00a08", "city": "Rieden", "postcode": "92286", "phone": "09624-833", "email": null, "website": null, "comment": "Sprechzeiten auch nach Vereinbarung", "lat": 49.32423, "lon": 11.94594}, {"id": 108, "name": "Frank Althen (Facharzt f\u00fcr Innere Medizin)", "type": "doctor", "street": "Maximilian-Philipp-Stra\u00dfe\u00a08", "city": "T\u00fcrkheim", "postcode": "86842", "phone": "08245-1044", "email": "aljopraxis@t-online.de", "website": null, "comment": null, "lat": 48.06243, "lon": 10.63996}, {"id": 109, "name": "Dr.med.univ. Sirma Altikulac-Tapli (Fach\u00e4rztin f\u00fcr Allgemeinmedizin)", "type": "doctor", "street": "Br\u00fcckenstra\u00dfe\u00a013 a", "city": "Baar-Ebenhausen", "postcode": "85107", "phone": "0841-956161", "email": null, "website": null, "comment": null, "lat": 48.68105, "lon": 11.46878}, {"id": 110, "name": "Dr.med.univ. Sirma Altikulac-Tapli (Fach\u00e4rztin f\u00fcr Allgemeinmedizin)", "type": "doctor", "street": "Oberer Grasweg\u00a045", "city": "Ingolstadt", "postcode": "85055", "phone": "0841-956161", "email": null, "website": null, "comment": null, "lat": 48.7782, "lon": 11.44133}, {"id": 111, "name": "Dr. med. Friederike Altjohann (Fach\u00e4rztin f\u00fcr Allgemeinmedizin)", "type": "doctor", "street": "Isenstra\u00dfe\u00a025", "city": "Mettenheim", "postcode": "84562", "phone": "08631-6660", "email": "praxis@altjohann.de", "website": null, "comment": null, "lat": 48.25604, "lon": 12.46713}, {"id": 112, "name": "Dr. med. Sascha Altmaier (Facharzt f\u00fcr Innere Medizin)", "type": "doctor", "street": "Keplerstra\u00dfe\u00a018", "city": "Erlangen", "postcode": "91056", "phone": "09131-991929", "email": "kontakt@hausarztpraxis-altmaier.de", "website": null, "comment": "Sprechzeiten auch nach Vereinbarung", "lat": 49.56461, "lon": 10.95941}, {"id": 113, "name": "Joachim Altmann (Facharzt f\u00fcr Kinder- und Jugendmedizin)", "type": "doctor", "street": "Im Stillen\u00a02-4 1/2", "city": "Immenstadt i.Allg\u00e4u", "postcode": "87509", "phone": "08323-4050\n                            \n                        \n                        \n                    \n                        \n                            \n                            \n                                08323-9100", "email": null, "website": null, "comment": "Sprechzeiten auch nach Vereinbarung", "lat": 47.56167, "lon": 10.22676}, {"id": 114, "name": "Dr. med. univ. Marco Altmann (Facharzt f\u00fcr Innere Medizin)", "type": "doctor", "street": "Obere Marktstra\u00dfe\u00a010", "city": "K\u00f6sching", "postcode": "85092", "phone": "08456-7070", "email": null, "website": null, "comment": "Sprechzeiten auch nach Vereinbarung", "lat": 48.811, "lon": 11.49917}, {"id": 115, "name": "Robert Altmann (Facharzt f\u00fcr Allgemeinmedizin)", "type": "doctor", "street": "Marktplatz\u00a014 a", "city": "Neukirchen b.Hl.Blut", "postcode": "93453", "phone": "09947-2588", "email": null, "website": null, "comment": null, "lat": 49.25847, "lon": 12.97144}, {"id": 116, "name": "Dr. med. Ursula Altmann (Fach\u00e4rztin f\u00fcr Kinder- und Jugendmedizin)", "type": "doctor", "street": "Marienplatz\u00a012", "city": "F\u00fcrstenzell", "postcode": "94081", "phone": "08502-922218", "email": null, "website": null, "comment": null, "lat": 48.521, "lon": 13.31957}, {"id": 117, "name": "Dr. med. Dirk Altrichter (Facharzt f\u00fcr Allgemeinmedizin)", "type": "doctor", "street": "\u00c4u\u00dfere Sulzbacher Stra\u00dfe\u00a08-10", "city": "N\u00fcrnberg", "postcode": "90489", "phone": "0911-550100", "email": null, "website": "http://www.allgemeinaerzte-am-ring.de", "comment": "Sprechzeiten auch nach Vereinbarung", "lat": 49.45979, "lon": 11.10385}, {"id": 118, "name": "Dr. med. Viktor Aman (Facharzt f\u00fcr Allgemeinmedizin)", "type": "doctor", "street": "Br\u00e4uanger\u00a06 a", "city": "Palling", "postcode": "83349", "phone": "08629-304", "email": null, "website": null, "comment": "Sprechzeiten auch nach Vereinbarung", "lat": 48.00023, "lon": 12.63741}, {"id": 119, "name": "Dr. med. Christian Amann (Facharzt f\u00fcr Innere Medizin)", "type": "doctor", "street": "Ludwigstra\u00dfe\u00a08", "city": "Regensburg", "postcode": "93047", "phone": "0941-6308240", "email": null, "website": null, "comment": "Sprechzeiten auch nach Vereinbarung", "lat": 49.01992, "lon": 12.09012}, {"id": 120, "name": "Dr. med. Wolfgang Amann (Facharzt f\u00fcr Allgemeinmedizin)", "type": "doctor", "street": "Joditzer Weg\u00a080", "city": "Hof", "postcode": "95030", "phone": "09281-6898", "email": null, "website": null, "comment": "Sprechzeiten auch nach Vereinbarung", "lat": 50.32781, "lon": 11.88984}, {"id": 121, "name": "Dr. Univ. Siena Antonia Amato Ackva (Fach\u00e4rztin f\u00fcr Allgemeinmedizin)", "type": "doctor", "street": "Am Holderstock\u00a02", "city": "Ehingen", "postcode": "91725", "phone": "09835-512", "email": null, "website": null, "comment": null, "lat": 49.08873, "lon": 10.54584}, {"id": 122, "name": "Dr. med. Susann Amberg (Fach\u00e4rztin f\u00fcr Innere Medizin)", "type": "doctor", "street": "Ludwig-Feuerbach-Stra\u00dfe\u00a060", "city": "N\u00fcrnberg", "postcode": "90489", "phone": "0911-533343\n                            \n                        \n                        \n                    \n                        \n                            \n                            \n                                0911-533344", "email": null, "website": null, "comment": "Sprechzeiten auch nach Vereinbarung", "lat": 49.46044, "lon": 11.09905}, {"id": 123, "name": "Dr. med. Anton Amberger (Facharzt f\u00fcr Allgemeinmedizin)", "type": "doctor", "street": "Schenkendorfstra\u00dfe\u00a038", "city": "Augsburg", "postcode": "86167", "phone": "0821-703043", "email": null, "website": null, "comment": "Sprechzeiten auch nach Vereinbarung", "lat": 48.38783, "lon": 10.91792}, {"id": 124, "name": "Hans-Peter Ambos (Facharzt f\u00fcr Innere Medizin)", "type": "doctor", "street": "Theresienstra\u00dfe\u00a02", "city": "Landau a.d.Isar", "postcode": "94405", "phone": "09951-90160", "email": null, "website": null, "comment": null, "lat": 48.66803, "lon": 12.690745}, {"id": 125, "name": "dr. med. Marc Ambos (Facharzt f\u00fcr Innere Medizin)", "type": "doctor", "street": "Theresienstra\u00dfe\u00a02", "city": "Landau a.d.Isar", "postcode": "94405", "phone": "09951-90160", "email": null, "website": null, "comment": null, "lat": 48.66803, "lon": 12.69074}, {"id": 126, "name": "Stefan Ambrosch (Facharzt f\u00fcr Innere Medizin)", "type": "doctor", "street": "Alte Saline\u00a05", "city": "Bad Reichenhall", "postcode": "83435", "phone": "08651-7685180", "email": "info@salinen-aerzte.de", "website": null, "comment": "Sprechzeiten auch nach Vereinbarung", "lat": 47.72184, "lon": 12.87798}, {"id": 127, "name": "Dr. med. Cordula Ambros-Plabst (Fach\u00e4rztin f\u00fcr Kinder- und Jugendmedizin)", "type": "doctor", "street": "Bahnhofstra\u00dfe\u00a07", "city": "Planegg", "postcode": "82152", "phone": "089-8596440", "email": null, "website": null, "comment": null, "lat": 48.10323, "lon": 11.4205}, {"id": 128, "name": "dr. med. Lewente Ambrus (Facharzt f\u00fcr Allgemeinmedizin)", "type": "doctor", "street": "Stadtplatz\u00a030", "city": "Neumarkt-Sankt Veit", "postcode": "84494", "phone": "08639-8672", "email": null, "website": null, "comment": null, "lat": 48.36152, "lon": 12.5085}, {"id": 129, "name": "Yuriy Amdur (Facharzt f\u00fcr Allgemeinmedizin)", "type": "doctor", "street": "Roritzerstra\u00dfe\u00a027", "city": "N\u00fcrnberg", "postcode": "90419", "phone": "0911-3788916", "email": null, "website": null, "comment": null, "lat": 49.46152, "lon": 11.0699}, {"id": 130, "name": "Birgit Amely (Fach\u00e4rztin f\u00fcr Allgemeinmedizin)", "type": "doctor", "street": "Abensberger Stra\u00dfe\u00a023", "city": "Mainburg", "postcode": "84048", "phone": "08751-3758\n                            \n                        \n                        \n                    \n                        \n                            \n                            \n                                08751-3737", "email": null, "website": null, "comment": "Sprechzeiten auch nach Vereinbarung", "lat": 48.64332, "lon": 11.78702}, {"id": 131, "name": "MUDr.(Univ. Pre\u00dfburg) Renata Amend (Fach\u00e4rztin f\u00fcr Allgemeinmedizin)", "type": "doctor", "street": "Regiomontanusstra\u00dfe\u00a025", "city": "K\u00f6nigsberg i.Bay.", "postcode": "97486", "phone": "09525-950105", "email": null, "website": null, "comment": null, "lat": 50.0821, "lon": 10.56603}, {"id": 132, "name": "Dr. med. Bernd Amling (Facharzt f\u00fcr Allgemeinmedizin)", "type": "doctor", "street": "Hauptstra\u00dfe\u00a07", "city": "Eibelstadt", "postcode": "97246", "phone": "09303-8191", "email": null, "website": null, "comment": "Sprechzeiten auch nach Vereinbarung", "lat": 49.72558, "lon": 9.99964}, {"id": 133, "name": "Dr. med. Dagmar Amling (Fach\u00e4rztin f\u00fcr Allgemeinmedizin)", "type": "doctor", "street": "Sudetenstra\u00dfe\u00a01a", "city": "Aichach", "postcode": "86551", "phone": "08251-204460", "email": null, "website": null, "comment": null, "lat": 48.45763, "lon": 11.12796}, {"id": 134, "name": "Jens Amling (Facharzt f\u00fcr Allgemeinmedizin)", "type": "doctor", "street": "Hauptstra\u00dfe\u00a056", "city": "Schonungen", "postcode": "97453", "phone": "09721-59495", "email": null, "website": null, "comment": null, "lat": 50.0465, "lon": 10.30842}, {"id": 135, "name": "Bodo Amschler (Facharzt f\u00fcr Allgemeinmedizin)", "type": "doctor", "street": "Glockenhofstra\u00dfe\u00a028", "city": "N\u00fcrnberg", "postcode": "90478", "phone": "0911-49669", "email": "info@praxis-rietsch.de", "website": "http://www.praxis-rietsch.de", "comment": "Sprechzeiten auch nach Vereinbarung", "lat": 49.44421, "lon": 11.09059}, {"id": 136, "name": "Dr. med. Jeanette Amschler-Thomas (Fach\u00e4rztin f\u00fcr Allgemeinmedizin)", "type": "doctor", "street": "Mechenharder Stra\u00dfe\u00a0174", "city": "Erlenbach a.Main", "postcode": "63906", "phone": "09372-944860", "email": null, "website": null, "comment": "Sprechzeiten auch nach Vereinbarung", "lat": 49.79474, "lon": 9.19529}, {"id": 137, "name": "Dr. med. Tatjana Amsel (Fach\u00e4rztin f\u00fcr Allgemeinmedizin)", "type": "doctor", "street": "Rumburgstra\u00dfe\u00a08", "city": "Sulzbach-Rosenberg", "postcode": "92237", "phone": "09661-8157870", "email": null, "website": null, "comment": "Sprechzeiten auch nach Vereinbarung", "lat": 49.50072, "lon": 11.74492}, {"id": 138, "name": "Dr. med. Tatjana Amsel (Fach\u00e4rztin f\u00fcr Allgemeinmedizin)", "type": "doctor", "street": "Hauptstra\u00dfe\u00a038", "city": "Neukirchen b.Sulzb.-Rosenberg", "postcode": "92259", "phone": "09663-2447", "email": null, "website": null, "comment": null, "lat": 49.52891, "lon": 11.62953}, {"id": 139, "name": "Dr. med. Britta Amthor (Fach\u00e4rztin f\u00fcr Allgemeinmedizin)", "type": "doctor", "street": "Sp\u00f6ttinger Stra\u00dfe\u00a014", "city": "Landsberg am Lech", "postcode": "86899", "phone": "08191-39139", "email": null, "website": null, "comment": null, "lat": 48.04915, "lon": 10.86856}, {"id": 140, "name": "Dima Anani (Fach\u00e4rztin f\u00fcr Kinder- und Jugendmedizin\n                            Schwerpunkt Schwerpunkt Neonatologie)", "type": "doctor", "street": "Waldstra\u00dfe\u00a036", "city": "F\u00fcrth", "postcode": "90763", "phone": "0911-7236010", "email": null, "website": null, "comment": "Sprechzeiten auch nach Vereinbarung", "lat": 49.46366, "lon": 11.00149}, {"id": 141, "name": "Alexander Ananko (Facharzt f\u00fcr Allgemeinmedizin)", "type": "doctor", "street": "Allersberger Stra\u00dfe\u00a085", "city": "N\u00fcrnberg", "postcode": "90461", "phone": "0911-442121", "email": null, "website": null, "comment": null, "lat": 49.44013, "lon": 11.09064}, {"id": 142, "name": "Ruth Andelfinger (Fach\u00e4rztin f\u00fcr Allgemeinmedizin)", "type": "doctor", "street": "Obere Hauptstra\u00dfe\u00a02", "city": "Eching", "postcode": "85386", "phone": "089-3192611", "email": null, "website": null, "comment": "Sprechzeiten auch nach Vereinbarung", "lat": 48.29653, "lon": 11.62069}, {"id": 143, "name": "Dr. med. Karl-Heinz Ander (Facharzt f\u00fcr Allgemeinmedizin)", "type": "doctor", "street": "Amselweg\u00a013", "city": "Anzing", "postcode": "85646", "phone": "08121-41122", "email": null, "website": null, "comment": "Sprechzeiten auch nach Vereinbarung", "lat": 48.15291, "lon": 11.85197}, {"id": 144, "name": "Gabriele Anderl (Praktische \u00c4rztin)", "type": "doctor", "street": "Am Feilnbacher Bahnhof\u00a012", "city": "Bad Aibling", "postcode": "83043", "phone": "08061-36398", "email": null, "website": null, "comment": "Sprechzeiten auch nach Vereinbarung", "lat": 47.86347, "lon": 11.99982}, {"id": 145, "name": "Dr.(Univ. Padua) Luise Andraschko (Fach\u00e4rztin f\u00fcr Allgemeinmedizin)", "type": "doctor", "street": "Burgweg\u00a013", "city": "Untergriesbach", "postcode": "94107", "phone": "08593-93232", "email": null, "website": null, "comment": "Sprechzeiten auch nach Vereinbarung", "lat": 48.57133, "lon": 13.6632}, {"id": 146, "name": "Dr. med. Christopher Andratschke (Facharzt f\u00fcr Allgemeinmedizin)", "type": "doctor", "street": "Tegernseer Landstra\u00dfe\u00a011", "city": "Sauerlach", "postcode": "82054", "phone": "08104-9001", "email": "praxis@dr-andratschke.de", "website": "http://www.dr-andratschke.de", "comment": "Sprechzeiten auch nach Vereinbarung", "lat": 47.97012, "lon": 11.65401}, {"id": 147, "name": "Elena Andreeva (Fach\u00e4rztin f\u00fcr Allgemeinmedizin)", "type": "doctor", "street": "Hauptstra\u00dfe\u00a0107", "city": "H\u00f6chberg", "postcode": "97204", "phone": "0931-48360", "email": null, "website": null, "comment": null, "lat": 49.78023, "lon": 9.87655}, {"id": 148, "name": "Elena Andreeva (Fach\u00e4rztin f\u00fcr Allgemeinmedizin)", "type": "doctor", "street": "Am Rathaus\u00a01", "city": "Kist", "postcode": "97270", "phone": null, "email": null, "website": null, "comment": null, "lat": 49.74207, "lon": 9.84109}, {"id": 149, "name": "Dr. med. Christa Andres (\u00c4rztin)", "type": "doctor", "street": "Riedenburger Stra\u00dfe\u00a02", "city": "Kelheim", "postcode": "93309", "phone": "09441-7036700", "email": "hausaerzte.kelheim@bayhn.de", "website": null, "comment": null, "lat": 48.9211, "lon": 11.87408}, {"id": 150, "name": "Dr. med. Christa Andres (\u00c4rztin)", "type": "doctor", "street": "Hermann-L\u00f6ns-Stra\u00dfe\u00a02", "city": "Saal a.d.Donau", "postcode": "93342", "phone": null, "email": null, "website": null, "comment": null, "lat": 48.89646, "lon": 11.92482}, {"id": 151, "name": "Alexandra Andresen (Fach\u00e4rztin f\u00fcr Allgemeinmedizin)", "type": "doctor", "street": "Badstra\u00dfe\u00a031", "city": "Bad Steben", "postcode": "95138", "phone": "09288-286", "email": null, "website": null, "comment": null, "lat": 50.36431, "lon": 11.63449}, {"id": 152, "name": "Dr. med. Wolfgang Andres-Fischer (Facharzt f\u00fcr Allgemeinmedizin)", "type": "doctor", "street": "Landsberger Stra\u00dfe\u00a063", "city": "Germering", "postcode": "82110", "phone": "089-842400", "email": null, "website": null, "comment": "Sprechzeiten auch nach Vereinbarung", "lat": 48.12875, "lon": 11.35956}, {"id": 153, "name": "Dr. med. Cornelia Aner-Batrice (Fach\u00e4rztin f\u00fcr Innere Medizin)", "type": "doctor", "street": "Pfarrkirchener Stra\u00dfe\u00a012", "city": "Eggenfelden", "postcode": "84307", "phone": "08721-6565", "email": null, "website": null, "comment": null, "lat": 48.40388, "lon": 12.76451}, {"id": 154, "name": "Dr. med. Franz Angerer (Facharzt f\u00fcr Innere Medizin)", "type": "doctor", "street": "Silbergstra\u00dfe\u00a087", "city": "Bischofswiesen", "postcode": "83483", "phone": "08652-4366", "email": null, "website": "http://www.dr-angerer.de", "comment": "Sprechzeiten auch nach Vereinbarung", "lat": 47.62673, "lon": 12.96282}, {"id": 155, "name": "Dr. med. Richard Angerer (Facharzt f\u00fcr Innere Medizin)", "type": "doctor", "street": "Tattenbachstra\u00dfe\u00a022", "city": "Augsburg", "postcode": "86179", "phone": "0821-84588", "email": null, "website": null, "comment": "Sprechzeiten auch nach Vereinbarung", "lat": 48.30773, "lon": 10.90601}, {"id": 156, "name": "Dr. med. Cornelia Angerer-Daum (Fach\u00e4rztin f\u00fcr Allgemeinmedizin)", "type": "doctor", "street": "Gr\u00fcnsteinweg\u00a024", "city": "Fichtelberg", "postcode": "95686", "phone": "09272-9658920", "email": null, "website": null, "comment": null, "lat": 50.00884, "lon": 11.84428}, {"id": 157, "name": "Dr. med. Alexander Angermann (Facharzt f\u00fcr Allgemeinmedizin)", "type": "doctor", "street": "Keferstra\u00dfe\u00a020", "city": "M\u00fcnchen", "postcode": "80802", "phone": "089-348784", "email": "alexander.angermann@web.de", "website": null, "comment": "Sprechzeiten auch nach Vereinbarung", "lat": 48.16254, "lon": 11.59482}, {"id": 158, "name": "Friedrich Angermann (Facharzt f\u00fcr Allgemeinmedizin)", "type": "doctor", "street": "Hauptstra\u00dfe\u00a011 A", "city": "Wendelstein", "postcode": "90530", "phone": "09129-7789", "email": null, "website": "http://www.hausarztpraxis-wendelstein.de", "comment": "Sprechzeiten auch nach Vereinbarung", "lat": 49.35568, "lon": 11.14198}, {"id": 159, "name": "Andreas Angermeier (Facharzt f\u00fcr Allgemeinmedizin)", "type": "doctor", "street": "Bruckdorfer Stra\u00dfe\u00a07a", "city": "Sinzing", "postcode": "93161", "phone": "0941-2804050", "email": "info@hinrichs-angermeier.de", "website": "http://www.hinrichs-angermeier.de", "comment": "Sprechzeiten auch nach Vereinbarung", "lat": 48.99033, "lon": 12.03232}, {"id": 160, "name": "Dr. med. Maria-Elisabeth Angst (Fach\u00e4rztin f\u00fcr Allgemeinmedizin)", "type": "doctor", "street": "Westlachenb\u00fchl\u00a029", "city": "Kaufbeuren", "postcode": "87600", "phone": "08341-2157", "email": null, "website": null, "comment": "Sprechzeiten auch nach Vereinbarung", "lat": 47.87759, "lon": 10.60657}, {"id": 161, "name": "Dr. med. Lars Ankenbrand (Facharzt f\u00fcr Innere Medizin\n                            \n                        \n\t\t\t\t\t\t\t\n\t\t\t\t\t\t\t\n\t\t\t\t\t\t\t\t\n\t\t\t\t\t\t\t\n\t\t\t\t\t\t\tFacharzt f\u00fcr Allgemeinmedizin)", "type": "doctor", "street": "Bamberger Stra\u00dfe\u00a02", "city": "Eckersdorf", "postcode": "95488", "phone": "0921-32999", "email": null, "website": null, "comment": "Sprechzeiten auch nach Vereinbarung", "lat": 49.9344, "lon": 11.50772}, {"id": 162, "name": "Christian-Alexander Anselm (Facharzt f\u00fcr Allgemeinmedizin)", "type": "doctor", "street": "Sparkassenstra\u00dfe\u00a01", "city": "Bad K\u00f6nigshofen i.Grabfeld", "postcode": "97631", "phone": "09761-6031", "email": null, "website": null, "comment": "Sprechzeiten auch nach Vereinbarung", "lat": 50.30073, "lon": 10.46651}, {"id": 163, "name": "Dr. med. Isabel Antoni (Fach\u00e4rztin f\u00fcr Kinder- und Jugendmedizin)", "type": "doctor", "street": "Bahnhofsweg\u00a08", "city": "Unterhaching", "postcode": "82008", "phone": "089-6114411", "email": null, "website": null, "comment": null, "lat": 48.06596, "lon": 11.61287}, {"id": 164, "name": "Dr. med. David Antos (Facharzt f\u00fcr Kinder- und Jugendmedizin)", "type": "doctor", "street": "Maximilianstra\u00dfe\u00a033", "city": "Traunstein", "postcode": "83278", "phone": "0861-14740", "email": "info@kinderarzt-traunstein.de", "website": "http://www.kinderarzt-traunstein.de", "comment": "Sprechzeiten auch nach Vereinbarung", "lat": 47.86723, "lon": 12.64475}, {"id": 165, "name": "Dr. med. Klaus Antretter (Praktischer Arzt)", "type": "doctor", "street": "Passauer Stra\u00dfe\u00a08", "city": "Breitenberg", "postcode": "94139", "phone": "08584-96010", "email": null, "website": null, "comment": null, "lat": 48.7022, "lon": 13.79196}, {"id": 166, "name": "Dr. med. Natalia Antretter (Fach\u00e4rztin f\u00fcr Allgemeinmedizin)", "type": "doctor", "street": "Kreillerstra\u00dfe\u00a0156", "city": "M\u00fcnchen", "postcode": "81825", "phone": "089-15902877", "email": null, "website": null, "comment": null, "lat": 48.12425, "lon": 11.65486}, {"id": 167, "name": "Gerhard Antrup (Praktischer Arzt)", "type": "doctor", "street": "Weinstra\u00dfe\u00a011", "city": "M\u00fcnchen", "postcode": "80333", "phone": "089-268338", "email": null, "website": null, "comment": "Sprechzeiten auch nach Vereinbarung", "lat": 48.13877, "lon": 11.57521}, {"id": 168, "name": "Dr. med. \u00d6zlem Anvari (Fach\u00e4rztin f\u00fcr Kinder- und Jugendmedizin)", "type": "doctor", "street": "Ludwigstra\u00dfe\u00a01", "city": "Schweinfurt", "postcode": "97421", "phone": "09721-759920", "email": null, "website": null, "comment": null, "lat": 50.04391, "lon": 10.22492}, {"id": 169, "name": "Tahir Anwari (Facharzt f\u00fcr Allgemeinmedizin)", "type": "doctor", "street": "K\u00f6nigstra\u00dfe\u00a073", "city": "N\u00fcrnberg", "postcode": "90402", "phone": "0911-9599170", "email": null, "website": null, "comment": "Sprechzeiten auch nach Vereinbarung", "lat": 49.44851, "lon": 11.08067}, {"id": 170, "name": "Dr. med. Christiana Anzinger-Najjar (Fach\u00e4rztin f\u00fcr Allgemeinmedizin)", "type": "doctor", "street": "Wolfgrubenweg\u00a02", "city": "Oberviechtach", "postcode": "92526", "phone": "09671-91620", "email": null, "website": null, "comment": "Sprechzeiten auch nach Vereinbarung", "lat": 49.46025, "lon": 12.41373}, {"id": 171, "name": "Dr. med. Olaf Apel (Facharzt f\u00fcr Innere Medizin)", "type": "doctor", "street": "Gartenweg\u00a07 1/2", "city": "Dingolfing", "postcode": "84130", "phone": "08731-6690", "email": null, "website": null, "comment": "Sprechzeiten auch nach Vereinbarung", "lat": 48.63047, "lon": 12.49557}, {"id": 172, "name": "Dr. med. Jasmina Aperlic (Fach\u00e4rztin f\u00fcr Allgemeinmedizin)", "type": "doctor", "street": "M\u00fcnchener Stra\u00dfe\u00a030", "city": "Mering", "postcode": "86415", "phone": "08233-9688", "email": null, "website": null, "comment": null, "lat": 48.26557, "lon": 10.98603}, {"id": 173, "name": "Eleni Apostel (Fach\u00e4rztin f\u00fcr Allgemeinmedizin)", "type": "doctor", "street": "Bahnhofstra\u00dfe\u00a047 A", "city": "Krumbach (Schwaben)", "postcode": "86381", "phone": "08282-5005", "email": null, "website": null, "comment": null, "lat": 48.24677, "lon": 10.35931}, {"id": 174, "name": "Dr. med. Snejana Apostolov (Fach\u00e4rztin f\u00fcr Allgemeinmedizin)", "type": "doctor", "street": "Sonnenstra\u00dfe\u00a029", "city": "M\u00fcnchen", "postcode": "80331", "phone": "089-452059000", "email": null, "website": null, "comment": "Sprechzeiten auch nach Vereinbarung", "lat": 48.13487, "lon": 11.56614}, {"id": 175, "name": "Dr. med. Thilo Appel (Facharzt f\u00fcr Innere Medizin)", "type": "doctor", "street": "Hauptstra\u00dfe\u00a03b", "city": "Dittelbrunn", "postcode": "97456", "phone": "09721-41011", "email": "info@hausarzt-dittelbrunn.de", "website": "http://www.hausarzt-dittelbrunn.de", "comment": "Sprechzeiten auch nach Vereinbarung", "lat": 50.07012, "lon": 10.22322}, {"id": 176, "name": "Natalia Appelganz (Fach\u00e4rztin f\u00fcr Innere Medizin)", "type": "doctor", "street": "Wertachstra\u00dfe\u00a018", "city": "Augsburg", "postcode": "86153", "phone": "0821-33524", "email": null, "website": null, "comment": "Sprechzeiten auch nach Vereinbarung", "lat": 48.37807, "lon": 10.88526}, {"id": 177, "name": "Dr. med. Vera Appl-G\u00e4rtner (Fach\u00e4rztin f\u00fcr Allgemeinmedizin)", "type": "doctor", "street": "Zehentplatz\u00a08", "city": "Mertingen", "postcode": "86690", "phone": "09078-9682863", "email": null, "website": null, "comment": "Sprechzeiten auch nach Vereinbarung", "lat": 48.65652, "lon": 10.80461}, {"id": 178, "name": "Dr. med. Michael Aprin (Facharzt f\u00fcr Allgemeinmedizin)", "type": "doctor", "street": "Marktplatz\u00a02", "city": "Parkstein", "postcode": "92711", "phone": "09602-636602", "email": null, "website": null, "comment": "Sprechzeiten auch nach Vereinbarung", "lat": 49.73305, "lon": 12.07123}, {"id": 179, "name": "Dr. med. Haile Araia (Praktischer Arzt)", "type": "doctor", "street": "Schwanthalerstra\u00dfe\u00a041", "city": "M\u00fcnchen", "postcode": "80336", "phone": "089-592139", "email": null, "website": null, "comment": null, "lat": 48.13725, "lon": 11.55895}, {"id": 180, "name": "Dr. med. univ. Vesko Arandjelovic (Facharzt f\u00fcr Allgemeinmedizin)", "type": "doctor", "street": "Heinestra\u00dfe\u00a07", "city": "Maisach", "postcode": "82216", "phone": "08142-488094", "email": null, "website": null, "comment": "Sprechzeiten auch nach Vereinbarung", "lat": 48.21261, "lon": 11.29771}, {"id": 181, "name": "Tanja Arbogast (Fach\u00e4rztin f\u00fcr Allgemeinmedizin)", "type": "doctor", "street": "Allinger Stra\u00dfe\u00a018", "city": "Puchheim", "postcode": "82178", "phone": "089-801169", "email": null, "website": null, "comment": null, "lat": 48.17085, "lon": 11.34851}, {"id": 182, "name": "Gottfried Arbter (Facharzt f\u00fcr Allgemeinmedizin)", "type": "doctor", "street": "Im Bogen\u00a04", "city": "Offingen", "postcode": "89362", "phone": "08224-96940", "email": null, "website": null, "comment": "Sprechzeiten auch nach Vereinbarung", "lat": 48.48076, "lon": 10.36837}, {"id": 183, "name": "Vladimir Arcybasov (Facharzt f\u00fcr Innere Medizin)", "type": "doctor", "street": "Wispeckweg\u00a04 A", "city": "Velburg", "postcode": "92355", "phone": "09182-9313490", "email": "info@aerztehaus-velburg.de", "website": "http://www.aerztehaus-velburg.de", "comment": "Sprechzeiten auch nach Vereinbarung", "lat": 49.23419, "lon": 11.67219}, {"id": 184, "name": "Melissa Ardan-Bajbouj (Fach\u00e4rztin f\u00fcr Kinder- und Jugendmedizin)", "type": "doctor", "street": "Kuglerstra\u00dfe\u00a017", "city": "M\u00fcnchen", "postcode": "81675", "phone": "089-45216260", "email": null, "website": null, "comment": null, "lat": 48.13686, "lon": 11.60504}, {"id": 185, "name": "Bertram Arendt (Facharzt f\u00fcr Allgemeinmedizin)", "type": "doctor", "street": "Erdinger Stra\u00dfe\u00a017 a", "city": "Dorfen", "postcode": "84405", "phone": "08081-2109", "email": null, "website": null, "comment": "Sprechzeiten auch nach Vereinbarung", "lat": 48.28475, "lon": 12.13587}, {"id": 186, "name": "Dr. med. Tina Arenz (Fach\u00e4rztin f\u00fcr Kinder- und Jugendmedizin)", "type": "doctor", "street": "Martin-Binder-Ring\u00a03", "city": "Pfaffenhofen a.d.Ilm", "postcode": "85276", "phone": "08441-783420", "email": null, "website": null, "comment": "Sprechzeiten auch nach Vereinbarung", "lat": 48.52233, "lon": 11.49486}, {"id": 187, "name": "Dr. med. Carolin Arlt (Fach\u00e4rztin f\u00fcr Allgemeinmedizin)", "type": "doctor", "street": "Flugplatzstra\u00dfe\u00a04", "city": "Giebelstadt", "postcode": "97232", "phone": "09334-266", "email": "info@hausarztpraxis-pfeiffer.de", "website": "http://www.hausarztpraxis-pfeiffer.de", "comment": "Sprechzeiten auch nach Vereinbarung", "lat": 49.65333, "lon": 9.94826}, {"id": 188, "name": "Benjamin Armann (Facharzt f\u00fcr Allgemeinmedizin)", "type": "doctor", "street": "Bahnhofstra\u00dfe\u00a021", "city": "Memmelsdorf", "postcode": "96117", "phone": "0951-9643410", "email": null, "website": null, "comment": null, "lat": 49.93481, "lon": 10.9537}, {"id": 189, "name": "Katja Armborst (Fach\u00e4rztin f\u00fcr Allgemeinmedizin)", "type": "doctor", "street": "Bahnhofstra\u00dfe\u00a018 A", "city": "Ismaning", "postcode": "85737", "phone": "089-969452", "email": null, "website": null, "comment": "Sprechzeiten auch nach Vereinbarung", "lat": 48.22493, "lon": 11.67292}, {"id": 190, "name": "Eva M. Arndt (Fach\u00e4rztin f\u00fcr Allgemeinmedizin)", "type": "doctor", "street": "Bahnhofstra\u00dfe\u00a013", "city": "Ismaning", "postcode": "85737", "phone": "089-96207370", "email": null, "website": null, "comment": "Sprechzeiten auch nach Vereinbarung", "lat": 48.22452, "lon": 11.67505}, {"id": 191, "name": "Dr. med. Max Arndt (Facharzt f\u00fcr Allgemeinmedizin)", "type": "doctor", "street": "Pei\u00dfenbergstra\u00dfe\u00a04", "city": "Augsburg", "postcode": "86163", "phone": "0821-63070", "email": null, "website": null, "comment": "Sprechzeiten auch nach Vereinbarung", "lat": 48.35895, "lon": 10.938665}, {"id": 192, "name": "Dr. med. Susanne Arndt (Fach\u00e4rztin f\u00fcr Allgemeinmedizin)", "type": "doctor", "street": "Pei\u00dfenbergstra\u00dfe\u00a04", "city": "Augsburg", "postcode": "86163", "phone": "0821-63070", "email": null, "website": null, "comment": "Sprechzeiten auch nach Vereinbarung", "lat": 48.35895, "lon": 10.93866}, {"id": 193, "name": "Dr. med. Wieland Arndt (Facharzt f\u00fcr Allgemeinmedizin)", "type": "doctor", "street": "Schulstra\u00dfe\u00a014", "city": "Trostberg", "postcode": "83308", "phone": "08621-3935", "email": null, "website": null, "comment": null, "lat": 48.02826, "lon": 12.55537}, {"id": 194, "name": "Dr. med. Marcella Arnegger (Fach\u00e4rztin f\u00fcr Innere Medizin)", "type": "doctor", "street": "Auenstra\u00dfe\u00a06", "city": "Garmisch-Partenkirchen", "postcode": "82467", "phone": "08821-771450", "email": null, "website": null, "comment": "Sprechzeiten auch nach Vereinbarung", "lat": 47.4833, "lon": 11.12836}, {"id": 195, "name": "Dr. med. J\u00fcrgen Arnhardt (Facharzt f\u00fcr Allgemeinmedizin)", "type": "doctor", "street": "Eichenstra\u00dfe\u00a09", "city": "H\u00f6chst\u00e4dt a.d.Donau", "postcode": "89420", "phone": "09074-1555", "email": null, "website": null, "comment": null, "lat": 48.6148, "lon": 10.57151}, {"id": 196, "name": "Dr. med. Victor von Arnim (Facharzt f\u00fcr Kinder- und Jugendmedizin\n                            Schwerpunkt Schwerpunkt Kinder-Kardiologie)", "type": "doctor", "street": "Falkensteiner Stra\u00dfe\u00a024", "city": "Roding", "postcode": "93426", "phone": "09461-3380", "email": null, "website": null, "comment": null, "lat": 49.19344, "lon": 12.5177}, {"id": 197, "name": "Dr. med. Andreas Arnold (Facharzt f\u00fcr Innere Medizin)", "type": "doctor", "street": "Zeppelinstra\u00dfe\u00a026", "city": "Erlangen", "postcode": "91052", "phone": "09131-14141", "email": null, "website": null, "comment": "Sprechzeiten auch nach Vereinbarung", "lat": 49.58749, "lon": 11.01236}, {"id": 198, "name": "Dr. med. Martina Arnold (Fach\u00e4rztin f\u00fcr Innere Medizin)", "type": "doctor", "street": "Hartstra\u00dfe\u00a052", "city": "Germering", "postcode": "82110", "phone": "089-80070790", "email": null, "website": null, "comment": "Sprechzeiten auch nach Vereinbarung", "lat": 48.12827, "lon": 11.37618}, {"id": 199, "name": "Dr. med. Martina Arnold (Fach\u00e4rztin f\u00fcr Innere Medizin)", "type": "doctor", "street": "R\u00f6ntgenstra\u00dfe\u00a02", "city": "Planegg", "postcode": "82152", "phone": null, "email": null, "website": null, "comment": null, "lat": 48.10908, "lon": 11.45164}, {"id": 210, "name": "Gudrun Arzt (Fach\u00e4rztin f\u00fcr Allgemeinmedizin)", "type": "doctor", "street": "Doktor-Theobald-Schrems-Stra\u00dfe\u00a018", "city": "Regensburg", "postcode": "93055", "phone": "0941-791165", "email": null, "website": null, "comment": "Sprechzeiten auch nach Vereinbarung", "lat": 49.01436, "lon": 12.11415}, {"id": 211, "name": "Martin Asbahr (Facharzt f\u00fcr Allgemeinmedizin)", "type": "doctor", "street": "Gustav-Schickedanz-Stra\u00dfe\u00a07 A", "city": "F\u00fcrth", "postcode": "90762", "phone": "0911-9792220", "email": "mvz-fuerth@algesiologikum.de", "website": "http://www.algesiologikum.de/mvz-fuerth", "comment": null, "lat": 49.47153, "lon": 10.9917}, {"id": 212, "name": "Dr. med. Claudia Aschenbrenner (Fach\u00e4rztin f\u00fcr Innere Medizin)", "type": "doctor", "street": "Bahnhofstra\u00dfe\u00a02", "city": "Velden", "postcode": "91235", "phone": "09152-7124", "email": null, "website": null, "comment": "Sprechzeiten auch nach Vereinbarung", "lat": 49.61285, "lon": 11.51143}, {"id": 213, "name": "Katrin Ascher (Fach\u00e4rztin f\u00fcr Allgemeinmedizin)", "type": "doctor", "street": "Weihenlindener Stra\u00dfe\u00a011", "city": "Bruckm\u00fchl", "postcode": "83052", "phone": "08061-4004", "email": null, "website": "http://www.heufeldpraxis.de", "comment": "Sprechzeiten auch nach Vereinbarung", "lat": 47.87316, "lon": 11.95169}, {"id": 214, "name": "Dr. med. Markus Ascher (Facharzt f\u00fcr Kinder- und Jugendmedizin)", "type": "doctor", "street": "Marienplatz\u00a016", "city": "Dingolfing", "postcode": "84130", "phone": "08731-312180", "email": null, "website": null, "comment": null, "lat": 48.62944, "lon": 12.49929}, {"id": 215, "name": "Dr. med. Philipp Ascher (Facharzt f\u00fcr Innere Medizin)", "type": "doctor", "street": "Kirchplatz\u00a08", "city": "Oberhaching", "postcode": "82041", "phone": "089-6133085", "email": "philippascher@googlemail.com", "website": null, "comment": "Sprechzeiten auch nach Vereinbarung", "lat": 48.02571, "lon": 11.59636}, {"id": 216, "name": "Dr. med. J\u00f6rg Ascherl (Facharzt f\u00fcr Innere Medizin)", "type": "doctor", "street": "Fuggerstra\u00dfe\u00a019", "city": "Schwabm\u00fcnchen", "postcode": "86830", "phone": "08232-808440", "email": null, "website": null, "comment": "Sprechzeiten auch nach Vereinbarung", "lat": 48.18033, "lon": 10.7575}, {"id": 217, "name": "Dr. med. Iyad Asid (Facharzt f\u00fcr Allgemeinmedizin)", "type": "doctor", "street": "Gugelstra\u00dfe\u00a0131", "city": "N\u00fcrnberg", "postcode": "90459", "phone": "0911-442222", "email": null, "website": null, "comment": "Sprechzeiten auch nach Vereinbarung", "lat": 49.43242, "lon": 11.07943}, {"id": 218, "name": "Theodora Asimakopoulou (Fach\u00e4rztin f\u00fcr Allgemeinmedizin)", "type": "doctor", "street": "Alfred-Nobel-Stra\u00dfe\u00a02", "city": "Augsburg", "postcode": "86156", "phone": "0821-3198750", "email": null, "website": null, "comment": "Sprechzeiten auch nach Vereinbarung", "lat": 48.38287, "lon": 10.84732}, {"id": 219, "name": "Jakob Asis (Facharzt f\u00fcr Allgemeinmedizin)", "type": "doctor", "street": "Poststra\u00dfe\u00a013", "city": "Hof", "postcode": "95028", "phone": "09281-2520", "email": null, "website": null, "comment": "Sprechzeiten auch nach Vereinbarung", "lat": 50.31884, "lon": 11.91328}, {"id": 220, "name": "Dr. med. Ibrahim Aslan (Facharzt f\u00fcr Kinder- und Jugendmedizin)", "type": "doctor", "street": "Krugstra\u00dfe\u00a012", "city": "N\u00fcrnberg", "postcode": "90419", "phone": "0911-3939399", "email": "ibrahim.aslan@t-online.de", "website": null, "comment": null, "lat": 49.45827, "lon": 11.05801}, {"id": 221, "name": "Dr. med. Gabriele Ast (Fach\u00e4rztin f\u00fcr Allgemeinmedizin)", "type": "doctor", "street": "Ehrwalder Stra\u00dfe\u00a08a", "city": "M\u00fcnchen", "postcode": "81377", "phone": "089-7194428", "email": null, "website": null, "comment": "Sprechzeiten auch nach Vereinbarung", "lat": 48.11849, "lon": 11.51607}, {"id": 222, "name": "Maximilian Athanasulis (Facharzt f\u00fcr Allgemeinmedizin)", "type": "doctor", "street": "Erlenstra\u00dfe\u00a02", "city": "Heideck", "postcode": "91180", "phone": "09177-309", "email": null, "website": null, "comment": "Sprechzeiten auch nach Vereinbarung", "lat": 49.13235, "lon": 11.1335}, {"id": 223, "name": "Dr. med. Meike Atsma (Fach\u00e4rztin f\u00fcr Allgemeinmedizin)", "type": "doctor", "street": "Bahnhofstra\u00dfe\u00a023", "city": "Maisach", "postcode": "82216", "phone": "08141-225630", "email": "hausarzt@praxis-maisach.de", "website": "http://www.praxis-maisach.de", "comment": null, "lat": 48.21463, "lon": 11.25864}, {"id": 224, "name": "Dr. med. Hubert Attenberger (Facharzt f\u00fcr Allgemeinmedizin)", "type": "doctor", "street": "Raiffeisenstra\u00dfe\u00a03", "city": "Babensham", "postcode": "83547", "phone": "08071-3036", "email": null, "website": null, "comment": null, "lat": 48.08194, "lon": 12.2699}, {"id": 225, "name": "Dr. med. Hubert Attenberger (Facharzt f\u00fcr Allgemeinmedizin)", "type": "doctor", "street": "Augustinerstra\u00dfe\u00a01", "city": "Gars a.Inn", "postcode": "83536", "phone": "08073-2330", "email": "info@gesund-in-gars.de", "website": "http://www.gesund-in-gars.de", "comment": null, "lat": 48.15279, "lon": 12.27576}, {"id": 226, "name": "Dr. med. Maximilian Attenberger (Facharzt f\u00fcr Allgemeinmedizin)", "type": "doctor", "street": "Am Karwinkel\u00a024", "city": "Grabenst\u00e4tt", "postcode": "83355", "phone": "08661-204", "email": null, "website": "http://www.aerzte-grabenstaett.de", "comment": null, "lat": 47.84988, "lon": 12.54645}, {"id": 227, "name": "Dr. med. Hannah Attinger (Fach\u00e4rztin f\u00fcr Allgemeinmedizin)", "type": "doctor", "street": "Penzstra\u00dfe\u00a010", "city": "N\u00fcrnberg", "postcode": "90419", "phone": "0911-3957593", "email": null, "website": null, "comment": null, "lat": 49.46157, "lon": 11.06053}, {"id": 228, "name": "Wahidullah Attiq (Facharzt f\u00fcr Innere Medizin)", "type": "doctor", "street": "Br\u00fcckenweg\u00a09", "city": "Mantel", "postcode": "92708", "phone": "01522-8626431\n                            \n                        \n                        \n                    \n                        \n                            \n                            \n                                09605-1480", "email": null, "website": null, "comment": "Sprechzeiten auch nach Vereinbarung", "lat": 49.64975, "lon": 12.04321}, {"id": 229, "name": "Dr. med. Rolf Atzinger (Facharzt f\u00fcr Innere Medizin)", "type": "doctor", "street": "H\u00f6rwarthstra\u00dfe\u00a033", "city": "M\u00fcnchen", "postcode": "80804", "phone": "089-55054550", "email": null, "website": null, "comment": "Sprechzeiten auch nach Vereinbarung", "lat": 48.16914, "lon": 11.58069}, {"id": 230, "name": "Dr. med. Rudolf Aubele (Facharzt f\u00fcr Allgemeinmedizin)", "type": "doctor", "street": "Sattlerh\u00f6he\u00a03", "city": "Konzell", "postcode": "94357", "phone": "09963-845", "email": null, "website": "http://www.hausarztpraxis-konzell.de", "comment": null, "lat": 49.07332, "lon": 12.71431}, {"id": 231, "name": "Dr. med. Franz Audebert (Facharzt f\u00fcr Innere Medizin)", "type": "doctor", "street": "Galgenbergstra\u00dfe\u00a025", "city": "Regensburg", "postcode": "93053", "phone": "0941-9206050\n                            \n                        \n                        \n                    \n                        \n                            \n                            \n                                0941-920600", "email": "audebert@praxiszentrum-regensburg.de", "website": null, "comment": "Sprechzeiten auch nach Vereinbarung", "lat": 49.00655, "lon": 12.10052}, {"id": 232, "name": "G\u00fcnter Auenhammer (Facharzt f\u00fcr Allgemeinmedizin)", "type": "doctor", "street": "Peter-Henlein-Stra\u00dfe\u00a012", "city": "Roth", "postcode": "91154", "phone": "09171-62424", "email": null, "website": null, "comment": null, "lat": 49.25558, "lon": 11.08627}, {"id": 233, "name": "Dr. med. Christine Auer (Fach\u00e4rztin f\u00fcr Innere Medizin)", "type": "doctor", "street": "Wettbach\u00a01", "city": "Wei\u00dfenhorn", "postcode": "89264", "phone": "07309-3434", "email": null, "website": null, "comment": "Sprechzeiten auch nach Vereinbarung", "lat": 48.30405, "lon": 10.15811}, {"id": 234, "name": "Dr. med. Helene Auer (Fach\u00e4rztin f\u00fcr Innere Medizin)", "type": "doctor", "street": "F\u00fcrstenrieder Stra\u00dfe\u00a062", "city": "M\u00fcnchen", "postcode": "80686", "phone": "089-569060", "email": null, "website": null, "comment": null, "lat": 48.13588, "lon": 11.50244}, {"id": 235, "name": "Dr. med. Sandra Auer (Fach\u00e4rztin f\u00fcr Allgemeinmedizin)", "type": "doctor", "street": "Hadrianstra\u00dfe\u00a030", "city": "Fridolfing", "postcode": "83413", "phone": "08684-335", "email": null, "website": null, "comment": null, "lat": 47.99772, "lon": 12.82544}, {"id": 236, "name": "Veronika Auer (Fach\u00e4rztin f\u00fcr Innere Medizin)", "type": "doctor", "street": "Herzog-Georg-Stra\u00dfe\u00a04", "city": "Altom\u00fcnster", "postcode": "85250", "phone": "08254-8484", "email": null, "website": null, "comment": "Sprechzeiten auch nach Vereinbarung", "lat": 48.38805, "lon": 11.25611}, {"id": 237, "name": "Dr. med. Ursula Auerbach-Wieselsberger (Fach\u00e4rztin f\u00fcr Allgemeinmedizin)", "type": "doctor", "street": "Fritz-Meyer-Weg\u00a045", "city": "M\u00fcnchen", "postcode": "81925", "phone": "089-95723616", "email": null, "website": null, "comment": "Sprechzeiten auch nach Vereinbarung", "lat": 48.17264, "lon": 11.63445}, {"id": 238, "name": "Dr. med. Josef Auerbeck (Facharzt f\u00fcr Allgemeinmedizin)", "type": "doctor", "street": "Hauptstra\u00dfe\u00a06", "city": "Landau a.d.Isar", "postcode": "94405", "phone": "09951-59349", "email": null, "website": null, "comment": "Sprechzeiten auch nach Vereinbarung", "lat": 48.67023, "lon": 12.6906}, {"id": 239, "name": "Dr. med. Sabine Auerochs (Fach\u00e4rztin f\u00fcr Kinder- und Jugendmedizin)", "type": "doctor", "street": "Domb\u00fchler Stra\u00dfe\u00a08", "city": "N\u00fcrnberg", "postcode": "90449", "phone": "0911-670950", "email": null, "website": null, "comment": null, "lat": 49.42231, "lon": 11.03177}, {"id": 240, "name": "Dr. med. Sabine Auerochs (Fach\u00e4rztin f\u00fcr Kinder- und Jugendmedizin)", "type": "doctor", "street": "Gustav-Adolf-Stra\u00dfe\u00a025 a", "city": "N\u00fcrnberg", "postcode": "90439", "phone": null, "email": null, "website": null, "comment": null, "lat": 49.43701, "lon": 11.03815}, {"id": 241, "name": "Dr. med. Ines Augele (Fach\u00e4rztin f\u00fcr Allgemeinmedizin)", "type": "doctor", "street": "Eschachried\u00a0155", "city": "Buchenberg", "postcode": "87474", "phone": "08378-9238084", "email": null, "website": null, "comment": "Sprechzeiten auch nach Vereinbarung", "lat": 47.70459, "lon": 10.21607}, {"id": 242, "name": "Dr. med. J\u00f6rg Augustin (Facharzt f\u00fcr Allgemeinmedizin)", "type": "doctor", "street": "M\u00fcnchner Stra\u00dfe\u00a01", "city": "Aschheim", "postcode": "85609", "phone": "089-9030421", "email": null, "website": null, "comment": "Sprechzeiten auch nach Vereinbarung", "lat": 48.17094, "lon": 11.71627}, {"id": 243, "name": "Klaus Auktor (Facharzt f\u00fcr Allgemeinmedizin)", "type": "doctor", "street": "Oettinger Stra\u00dfe\u00a07", "city": "Treuchtlingen", "postcode": "91757", "phone": "09142-2575", "email": "praxisa-z@auktor-zapf.de", "website": null, "comment": "Sprechzeiten auch nach Vereinbarung", "lat": 48.95459, "lon": 10.90721}, {"id": 244, "name": "Helmut Aulbach (Praktischer Arzt)", "type": "doctor", "street": "Obertorstra\u00dfe\u00a03", "city": "Gem\u00fcnden a.Main", "postcode": "97737", "phone": "09351-4224", "email": null, "website": null, "comment": "Sprechzeiten auch nach Vereinbarung", "lat": 50.05585, "lon": 9.69059}, {"id": 245, "name": "Dr. med. Richard Aulehner (Facharzt f\u00fcr Innere Medizin)", "type": "doctor", "street": "Margaretenstra\u00dfe\u00a052", "city": "Krailling", "postcode": "82152", "phone": "089-55058636", "email": "info@dr-aulehner.de", "website": "http://www.dr-aulehner.de", "comment": "Sprechzeiten auch nach Vereinbarung", "lat": 48.09793, "lon": 11.412805}, {"id": 246, "name": "Christina Aulehner-Forlenza (Fach\u00e4rztin f\u00fcr Innere Medizin)", "type": "doctor", "street": "Margaretenstra\u00dfe\u00a052", "city": "Krailling", "postcode": "82152", "phone": "089-55058636", "email": "info@dr-aulehner.de", "website": "http://www.dr-aulehner.de", "comment": "Sprechzeiten auch nach Vereinbarung", "lat": 48.09793, "lon": 11.4128}, {"id": 247, "name": "Dr. med. Bernd Aulinger (Facharzt f\u00fcr Kinder- und Jugendmedizin)", "type": "doctor", "street": "Regensburger Stra\u00dfe\u00a040", "city": "Burglengenfeld", "postcode": "93133", "phone": "09471-6100", "email": "info@kinderdoctor.de", "website": "http://www.kinderdoctor.de", "comment": "Sprechzeiten auch nach Vereinbarung", "lat": 49.20331, "lon": 12.04715}, {"id": 248, "name": "Dr. med. Monika Aumer-Hauke (Fach\u00e4rztin f\u00fcr Kinder- und Jugendmedizin)", "type": "doctor", "street": "August-Mohl-Stra\u00dfe\u00a038", "city": "Hof", "postcode": "95030", "phone": "09281-97051", "email": "info@praxis-mueller-wilken.de", "website": null, "comment": null, "lat": 50.31052, "lon": 11.90196}, {"id": 249, "name": "Dr. med. Monika Aumer-Hauke (Fach\u00e4rztin f\u00fcr Kinder- und Jugendmedizin)", "type": "doctor", "street": "Amselweg\u00a011", "city": "Naila", "postcode": "95119", "phone": "09282-1040", "email": null, "website": null, "comment": "Sprechzeiten auch nach Vereinbarung", "lat": 50.33285, "lon": 11.69922}, {"id": 250, "name": "Dr. med. Anton Aum\u00fcller (Facharzt f\u00fcr Allgemeinmedizin)", "type": "doctor", "street": "Haardtweg\u00a08", "city": "Zeil a.Main", "postcode": "97475", "phone": "09524-5334", "email": null, "website": null, "comment": "Sprechzeiten auch nach Vereinbarung", "lat": 50.01316, "lon": 10.59456}, {"id": 251, "name": "Doctor-medic Dorina Auner (Fach\u00e4rztin f\u00fcr Allgemeinmedizin)", "type": "doctor", "street": "Wilhelm-Hauff-Stra\u00dfe\u00a022", "city": "Augsburg", "postcode": "86161", "phone": "0821-553390", "email": null, "website": null, "comment": "Sprechzeiten auch nach Vereinbarung", "lat": 48.35558, "lon": 10.92203}, {"id": 252, "name": "Robert Auner (Facharzt f\u00fcr Allgemeinmedizin)", "type": "doctor", "street": "K\u00f6nigsberger Stra\u00dfe\u00a04", "city": "Dinkelsb\u00fchl", "postcode": "91550", "phone": "09851-3717", "email": null, "website": null, "comment": null, "lat": 49.06475, "lon": 10.33398}, {"id": 253, "name": "Robert Auner (Facharzt f\u00fcr Allgemeinmedizin)", "type": "doctor", "street": "Rosenfeld\u00a01", "city": "W\u00f6rnitz", "postcode": "91637", "phone": "09868-9399789", "email": null, "website": null, "comment": "Sprechzeiten auch nach Vereinbarung", "lat": 49.26303, "lon": 10.24179}, {"id": 254, "name": "Josef Ausmann (Facharzt f\u00fcr Allgemeinmedizin)", "type": "doctor", "street": "Landshuter Stra\u00dfe\u00a01", "city": "Furth", "postcode": "84095", "phone": "08704-1050", "email": null, "website": null, "comment": null, "lat": 48.58943, "lon": 12.02549}, {"id": 255, "name": "Andreas Aust (Praktischer Arzt)", "type": "doctor", "street": "Steibweg\u00a03", "city": "N\u00fcrnberg", "postcode": "90478", "phone": "0911-465395", "email": null, "website": null, "comment": "Sprechzeiten auch nach Vereinbarung", "lat": 49.44533, "lon": 11.10918}, {"id": 256, "name": "Dr. med. Thomas Autenrieth (Facharzt f\u00fcr Allgemeinmedizin)", "type": "doctor", "street": "Kohlgruber Stra\u00dfe\u00a02", "city": "Saulgrub", "postcode": "82442", "phone": "08845-616", "email": null, "website": null, "comment": "Sprechzeiten auch nach Vereinbarung", "lat": 47.66957, "lon": 11.02661}, {"id": 257, "name": "Dr. med. Thomas Autenrieth (Facharzt f\u00fcr Allgemeinmedizin)", "type": "doctor", "street": "Fallerstra\u00dfe\u00a012", "city": "Bad Kohlgrub", "postcode": "82433", "phone": null, "email": null, "website": null, "comment": null, "lat": 47.66152, "lon": 11.04897}, {"id": 258, "name": "Dr. med. J\u00fcrgen Auth (Facharzt f\u00fcr Innere Medizin)", "type": "doctor", "street": "Ludwigstra\u00dfe\u00a01 a", "city": "W\u00fcrzburg", "postcode": "97070", "phone": "0931-52253", "email": null, "website": null, "comment": null, "lat": 49.79547, "lon": 9.93604}, {"id": 259, "name": "Dr. med. Glenn Averbeck (Facharzt f\u00fcr Kinder- und Jugendmedizin)", "type": "doctor", "street": "T\u00fcrltorstra\u00dfe\u00a016", "city": "Pfaffenhofen a.d.Ilm", "postcode": "85276", "phone": "08441-498989", "email": null, "website": null, "comment": "Sprechzeiten auch nach Vereinbarung", "lat": 48.53184, "lon": 11.509335}, {"id": 260, "name": "Dr. med. Jutta Averbeck (Praktische \u00c4rztin)", "type": "doctor", "street": "T\u00fcrltorstra\u00dfe\u00a016", "city": "Pfaffenhofen a.d.Ilm", "postcode": "85276", "phone": "08441-498989", "email": null, "website": null, "comment": null, "lat": 48.53184, "lon": 11.50933}, {"id": 261, "name": "MUDr.(Univ. Pre\u00dfburg) Dimitra Avramidou-Neub\u00f6ck (Fach\u00e4rztin f\u00fcr Allgemeinmedizin)", "type": "doctor", "street": "Eisenacher Stra\u00dfe\u00a012", "city": "M\u00fcnchen", "postcode": "80804", "phone": "089-366580", "email": null, "website": null, "comment": "Sprechzeiten auch nach Vereinbarung", "lat": 48.17383, "lon": 11.58334}, {"id": 262, "name": "Ali Aydin (Praktischer Arzt)", "type": "doctor", "street": "Georgstra\u00dfe\u00a010", "city": "N\u00fcrnberg", "postcode": "90439", "phone": "0911-9287880", "email": null, "website": null, "comment": "Sprechzeiten auch nach Vereinbarung", "lat": 49.43999, "lon": 11.05124}, {"id": 263, "name": "Inci Aydin-Yaylag\u00fcl (Fach\u00e4rztin f\u00fcr Kinder- und Jugendmedizin)", "type": "doctor", "street": "Schweinauer Hauptstra\u00dfe\u00a0105", "city": "N\u00fcrnberg", "postcode": "90441", "phone": "0911-629162", "email": null, "website": null, "comment": "Sprechzeiten auch nach Vereinbarung", "lat": 49.42835, "lon": 11.04374}, {"id": 264, "name": "Doktora-ye pezeshki/Univ. Kashan Gholamreza Azim Zadeh (Facharzt f\u00fcr Allgemeinmedizin)", "type": "doctor", "street": "Weilheimer Stra\u00dfe\u00a09", "city": "P\u00fcrgen", "postcode": "86932", "phone": "08196-7100", "email": null, "website": null, "comment": "Sprechzeiten auch nach Vereinbarung", "lat": 48.02527, "lon": 10.9222}, {"id": 265, "name": "M. B.B. Ch.(IRQ) Saman Aziz (Facharzt f\u00fcr Innere Medizin)", "type": "doctor", "street": "K\u00f6nigstra\u00dfe\u00a049", "city": "N\u00fcrnberg", "postcode": "90402", "phone": "0911-24597", "email": null, "website": null, "comment": null, "lat": 49.4494, "lon": 11.07961}, {"id": 266, "name": "Khalid Azzam (Facharzt f\u00fcr Allgemeinmedizin)", "type": "doctor", "street": "Hauptstra\u00dfe\u00a062A", "city": "Neufahrn i.NB", "postcode": "84088", "phone": "08773-840", "email": "info@praxisneufahrn.de", "website": null, "comment": "Sprechzeiten auch nach Vereinbarung", "lat": 48.73376, "lon": 12.18949}, {"id": 267, "name": "Dr. med. Otto Baamann (Facharzt f\u00fcr Allgemeinmedizin)", "type": "doctor", "street": "Heinrich-Roth-Platz\u00a01", "city": "Dillingen a.d.Donau", "postcode": "89407", "phone": "09071-6036", "email": null, "website": null, "comment": "Sprechzeiten auch nach Vereinbarung", "lat": 48.57671, "lon": 10.49237}, {"id": 268, "name": "Dr. med. Reinhard Baar (Facharzt f\u00fcr Allgemeinmedizin)", "type": "doctor", "street": "Marktplatz\u00a012", "city": "Presseck", "postcode": "95355", "phone": "09222-445", "email": null, "website": null, "comment": "Sprechzeiten auch nach Vereinbarung", "lat": 50.22786, "lon": 11.55527}, {"id": 269, "name": "Dr. med. Thilo Baar (Facharzt f\u00fcr Innere Medizin)", "type": "doctor", "street": "Fleurystra\u00dfe\u00a07", "city": "Amberg", "postcode": "92224", "phone": "09621-916200", "email": "dr.thilo.baar@gmail.com", "website": "http://www.hausaerzte-praxis.net", "comment": "Sprechzeiten auch nach Vereinbarung", "lat": 49.44641, "lon": 11.846155}, {"id": 270, "name": "Dr. med. Verena Baar (Fach\u00e4rztin f\u00fcr Innere Medizin)", "type": "doctor", "street": "Fleurystra\u00dfe\u00a07", "city": "Amberg", "postcode": "92224", "phone": "09621-916200", "email": "dr.verena.baar@gmail.com", "website": "http://www.hausaerzte-praxis.net", "comment": null, "lat": 49.44641, "lon": 11.84615}, {"id": 271, "name": "Dr. med. Detlef Baare (Facharzt f\u00fcr Allgemeinmedizin)", "type": "doctor", "street": "M\u00fcnchener Stra\u00dfe\u00a025 a", "city": "Weilheim i.OB", "postcode": "82362", "phone": "0881-94950", "email": null, "website": null, "comment": "Sprechzeiten auch nach Vereinbarung", "lat": 47.84272, "lon": 11.14272}, {"id": 272, "name": "Dr. med. Emek Baatz (Fach\u00e4rztin f\u00fcr Innere Medizin)", "type": "doctor", "street": "Am Dreieck\u00a06", "city": "Neus\u00e4\u00df", "postcode": "86356", "phone": "0821-4804350", "email": null, "website": null, "comment": null, "lat": 48.37633, "lon": 10.8281}, {"id": 273, "name": "Susanne Baberg (Fach\u00e4rztin f\u00fcr Allgemeinmedizin)", "type": "doctor", "street": "Weiherhofer Hauptstra\u00dfe\u00a023", "city": "Zirndorf", "postcode": "90513", "phone": "0911-601287", "email": null, "website": null, "comment": null, "lat": 49.45939, "lon": 10.92928}, {"id": 274, "name": "Dr. med. Alexander Babiak (Facharzt f\u00fcr Innere Medizin)", "type": "doctor", "street": "Augsburger Stra\u00dfe\u00a04", "city": "Neu-Ulm", "postcode": "89231", "phone": "0731-207670", "email": null, "website": null, "comment": null, "lat": 48.39488, "lon": 9.999274999999999}, {"id": 275, "name": "Dr. med. Georg Babiak (Facharzt f\u00fcr Allgemeinmedizin)", "type": "doctor", "street": "Augsburger Stra\u00dfe\u00a04", "city": "Neu-Ulm", "postcode": "89231", "phone": "0731-207670", "email": null, "website": null, "comment": null, "lat": 48.39488, "lon": 9.99927}, {"id": 276, "name": "Igor Babintschuk (Facharzt f\u00fcr Innere Medizin)", "type": "doctor", "street": "Mommsenstra\u00dfe\u00a051", "city": "N\u00fcrnberg", "postcode": "90491", "phone": "0911-563008", "email": null, "website": null, "comment": "Sprechzeiten auch nach Vereinbarung", "lat": 49.4701, "lon": 11.10736}, {"id": 277, "name": "MUDr. Zuzana Babjakova (Fach\u00e4rztin f\u00fcr Allgemeinmedizin)", "type": "doctor", "street": "M\u00fcnchner Stra\u00dfe\u00a0187", "city": "Karlsfeld", "postcode": "85757", "phone": "08131-612090", "email": null, "website": null, "comment": "Sprechzeiten auch nach Vereinbarung", "lat": 48.22379, "lon": 11.47097}, {"id": 278, "name": "Margit Babl (Fach\u00e4rztin f\u00fcr Allgemeinmedizin)", "type": "doctor", "street": "Neunburger Stra\u00dfe\u00a022", "city": "R\u00f6tz", "postcode": "92444", "phone": "09976-200050", "email": null, "website": null, "comment": "Sprechzeiten auch nach Vereinbarung", "lat": 49.3431, "lon": 12.52161}, {"id": 279, "name": "Margit Babl (Fach\u00e4rztin f\u00fcr Allgemeinmedizin)", "type": "doctor", "street": "Ledererstra\u00dfe\u00a011", "city": "Neunburg vorm Wald", "postcode": "92431", "phone": "09672-504400", "email": "info@praxis-babl-neunburg.de", "website": null, "comment": "Sprechzeiten auch nach Vereinbarung", "lat": 49.34759, "lon": 12.38315}, {"id": 280, "name": "Dr. med. Thomas B\u00e4cher (Facharzt f\u00fcr Innere Medizin)", "type": "doctor", "street": "Maximilianstra\u00dfe\u00a027", "city": "Regensburg", "postcode": "93047", "phone": "0941-58980", "email": "tbaecher@praxis.de\n\ninfo@praxis-baecher.de", "website": "http://www.praxis-baecher.de", "comment": "Sprechzeiten auch nach Vereinbarung", "lat": 49.0153, "lon": 12.10041}, {"id": 281, "name": "Dr. med. Klaus Bachhuber (Facharzt f\u00fcr Innere Medizin)", "type": "doctor", "street": "Hauptstra\u00dfe\u00a027", "city": "Waltenhofen", "postcode": "87448", "phone": "08379-7042", "email": null, "website": null, "comment": "Sprechzeiten auch nach Vereinbarung", "lat": 47.62788, "lon": 10.27346}, {"id": 282, "name": "Robert Bachhuber (Facharzt f\u00fcr Allgemeinmedizin)", "type": "doctor", "street": "Marktplatz\u00a07a", "city": "Ortenburg", "postcode": "94496", "phone": "08542-7513", "email": null, "website": null, "comment": null, "lat": 48.54659, "lon": 13.22328}, {"id": 283, "name": "Dr. med. Wolf Bachhuber (Facharzt f\u00fcr Innere Medizin)", "type": "doctor", "street": "Staufenweg\u00a04", "city": "Traunreut", "postcode": "83301", "phone": "08669-2445", "email": null, "website": null, "comment": null, "lat": 47.95646, "lon": 12.59508}, {"id": 284, "name": "Dr. med. Jutta Bachl (Fach\u00e4rztin f\u00fcr Allgemeinmedizin)", "type": "doctor", "street": "Hopfengartenweg\u00a027", "city": "Altdorf b.N\u00fcrnberg", "postcode": "90518", "phone": "09187-921431", "email": null, "website": null, "comment": null, "lat": 49.37262, "lon": 11.35853}, {"id": 285, "name": "Dr. med. Katharina Bachmann (Fach\u00e4rztin f\u00fcr Innere Medizin)", "type": "doctor", "street": "Kapellenweg\u00a021", "city": "Vachendorf", "postcode": "83377", "phone": "0861-2109", "email": null, "website": null, "comment": "Sprechzeiten auch nach Vereinbarung", "lat": 47.84377, "lon": 12.61101}, {"id": 286, "name": "Dr. med. Rainer Bachmann (Praktischer Arzt)", "type": "doctor", "street": "Prinz-Ludwig-Stra\u00dfe\u00a022", "city": "Die\u00dfen am Ammersee", "postcode": "86911", "phone": "08807-361", "email": null, "website": null, "comment": null, "lat": 47.94983, "lon": 11.1031}, {"id": 287, "name": "Dr. med. Rainer Bachmann (Praktischer Arzt)", "type": "doctor", "street": "Herrenstra\u00dfe\u00a06", "city": "Die\u00dfen am Ammersee", "postcode": "86911", "phone": "08807-7989", "email": null, "website": null, "comment": null, "lat": 47.94797, "lon": 11.10207}, {"id": 288, "name": "Dr. med. Robert M. Bachmann (Facharzt f\u00fcr Allgemeinmedizin)", "type": "doctor", "street": "R\u00f6merstra\u00dfe\u00a08", "city": "Neustadt a.d.Donau", "postcode": "93333", "phone": "09445-966400", "email": null, "website": null, "comment": "Sprechzeiten auch nach Vereinbarung", "lat": 48.82609, "lon": 11.78075}, {"id": 289, "name": "Dr. med. Robert M. Bachmann (Facharzt f\u00fcr Allgemeinmedizin)", "type": "doctor", "street": "R\u00f6merstra\u00dfe\u00a021", "city": "T\u00fcrkheim", "postcode": "86842", "phone": "0171-6225116", "email": null, "website": null, "comment": null, "lat": 48.07004, "lon": 10.63961}, {"id": 290, "name": "Tatjana Bachmann (Fach\u00e4rztin f\u00fcr Allgemeinmedizin)", "type": "doctor", "street": "Rathausplatz\u00a01", "city": "Neubiberg", "postcode": "85579", "phone": "089-6809840", "email": null, "website": null, "comment": null, "lat": 48.07799, "lon": 11.66116}, {"id": 291, "name": "Helga Bachmeier-Traurig (Praktische \u00c4rztin)", "type": "doctor", "street": "Metzstra\u00dfe\u00a06", "city": "Bad K\u00f6tzting", "postcode": "93444", "phone": "09941-1400", "email": "claudia.stahl@aol.com", "website": null, "comment": "Sprechzeiten auch nach Vereinbarung", "lat": 49.17646, "lon": 12.85516}, {"id": 292, "name": "Dr. med. Andrea Bachmeyr (Fach\u00e4rztin f\u00fcr Kinder- und Jugendmedizin)", "type": "doctor", "street": "Josephsburgstra\u00dfe\u00a083", "city": "M\u00fcnchen", "postcode": "81673", "phone": "089-42001990", "email": "info@mein-kinderarzt-muenchen.de", "website": "http://www.mein-kinderarzt-muenchen.de", "comment": null, "lat": 48.12565, "lon": 11.63875}, {"id": 293, "name": "Doctor-medic Christian Bachner (Facharzt f\u00fcr Allgemeinmedizin)", "type": "doctor", "street": "Galgenbergstra\u00dfe\u00a02 A", "city": "Regensburg", "postcode": "93053", "phone": "0941-57144", "email": null, "website": null, "comment": null, "lat": 49.00965, "lon": 12.10079}, {"id": 294, "name": "Michaela Bachner (Fach\u00e4rztin f\u00fcr Innere Medizin)", "type": "doctor", "street": "Limbacher Stra\u00dfe\u00a077", "city": "Schwabach", "postcode": "91126", "phone": "09122-74875", "email": null, "website": null, "comment": null, "lat": 49.33839, "lon": 11.03967}, {"id": 295, "name": "Michaela Bachner (Fach\u00e4rztin f\u00fcr Innere Medizin)", "type": "doctor", "street": "Lausitzer Stra\u00dfe\u00a04", "city": "N\u00fcrnberg", "postcode": "90453", "phone": "0911-9626300", "email": null, "website": null, "comment": "Sprechzeiten auch nach Vereinbarung", "lat": 49.36109, "lon": 11.05225}, {"id": 296, "name": "Michaela Bachner (Fach\u00e4rztin f\u00fcr Innere Medizin)", "type": "doctor", "street": "Eibacher Hauptstra\u00dfe\u00a058", "city": "N\u00fcrnberg", "postcode": "90451", "phone": null, "email": null, "website": null, "comment": null, "lat": 49.40329, "lon": 11.03475}, {"id": 297, "name": "Michaela Bachner (Fach\u00e4rztin f\u00fcr Innere Medizin)", "type": "doctor", "street": "Rothenburger Stra\u00dfe\u00a0183 C", "city": "N\u00fcrnberg", "postcode": "90439", "phone": null, "email": null, "website": null, "comment": null, "lat": 49.44218, "lon": 11.04599}, {"id": 298, "name": "Dr. med. Horst-Dietrich Backe (Facharzt f\u00fcr Innere Medizin)", "type": "doctor", "street": "Johannes-Auer-Stra\u00dfe\u00a05", "city": "Denkendorf", "postcode": "85095", "phone": "08466-1011\n                            \n                        \n                        \n                    \n                        \n                            \n                            \n                                0171-8322570", "email": "info@allgemeinarztpraxis.info", "website": "http://www.allgemeinarztpraxis.info", "comment": "Sprechzeiten auch nach Vereinbarung", "lat": 48.92968, "lon": 11.45699}, {"id": 299, "name": "Dr. med. univ. Andrea Backer (Praktische \u00c4rztin)", "type": "doctor", "street": "In der \u00d6tz\u00a01", "city": "Markt Indersdorf", "postcode": "85229", "phone": "08136-5422", "email": null, "website": null, "comment": null, "lat": 48.35467, "lon": 11.3789}, {"id": 300, "name": "Dr. med. univ. Andrea Backer (Praktische \u00c4rztin)", "type": "doctor", "street": "Bgm.-Rothenfu\u00dfer-Stra\u00dfe\u00a012 a", "city": "Erdweg", "postcode": "85253", "phone": "08254-9989277", "email": null, "website": null, "comment": "Sprechzeiten auch nach Vereinbarung", "lat": 48.35552, "lon": 11.28137}, {"id": 301, "name": "Dr. med. Rita Backes (Fach\u00e4rztin f\u00fcr Allgemeinmedizin)", "type": "doctor", "street": "Abtsleitenweg\u00a06", "city": "W\u00fcrzburg", "postcode": "97074", "phone": "0931-881200", "email": "info@praxis-dr-backes.de\n\npx.dr.backes@gmx.de", "website": "http://www.praxis-dr-backes.de", "comment": "Sprechzeiten auch nach Vereinbarung", "lat": 49.77632, "lon": 9.95794}, {"id": 302, "name": "Prof. Dr. med. Markus Backmund (Facharzt f\u00fcr Innere Medizin)", "type": "doctor", "street": "Tal\u00a09", "city": "M\u00fcnchen", "postcode": "80331", "phone": "089-45228560", "email": null, "website": null, "comment": "Sprechzeiten auch nach Vereinbarung", "lat": 48.13641, "lon": 11.57754}, {"id": 303, "name": "Dorjpagma Badam (Fach\u00e4rztin f\u00fcr Innere Medizin)", "type": "doctor", "street": "Doktor-Friedrich-Baur-Stra\u00dfe\u00a01", "city": "Altenkunstadt", "postcode": "96264", "phone": "09572-2292", "email": null, "website": null, "comment": "Sprechzeiten auch nach Vereinbarung", "lat": 50.1292, "lon": 11.24627}, {"id": 304, "name": "Dr. med. Christina Bader (Fach\u00e4rztin f\u00fcr Allgemeinmedizin)", "type": "doctor", "street": "Albert-Seidl-Stra\u00dfe\u00a013", "city": "Simbach a.Inn", "postcode": "84359", "phone": "08571-2757", "email": null, "website": null, "comment": "Sprechzeiten auch nach Vereinbarung", "lat": 48.26784, "lon": 13.01786}, {"id": 305, "name": "Christoph Bader (Facharzt f\u00fcr Allgemeinmedizin)", "type": "doctor", "street": "Loitshauser Stra\u00dfe\u00a033 a", "city": "Marquartstein", "postcode": "83250", "phone": "08641-8333", "email": null, "website": null, "comment": null, "lat": 47.76213, "lon": 12.45613}, {"id": 306, "name": "Frank Bader (Facharzt f\u00fcr Allgemeinmedizin)", "type": "doctor", "street": "Forchheimer Stra\u00dfe\u00a06", "city": "Igensdorf", "postcode": "91338", "phone": "09192-1696", "email": null, "website": null, "comment": "Sprechzeiten auch nach Vereinbarung", "lat": 49.62115, "lon": 11.23307}, {"id": 307, "name": "Dr. med. Ina Bader (Fach\u00e4rztin f\u00fcr Innere Medizin)", "type": "doctor", "street": "Bahnhofstra\u00dfe\u00a010", "city": "Mainburg", "postcode": "84048", "phone": "08751-2222", "email": "praxisbader@aol.com", "website": "http://praxisbader.de", "comment": null, "lat": 48.64224, "lon": 11.78317}, {"id": 308, "name": "Dr. med. Michael Bader (Facharzt f\u00fcr Innere Medizin)", "type": "doctor", "street": "Hauptstra\u00dfe\u00a05", "city": "Uffing a.Staffelsee", "postcode": "82449", "phone": "0160-2530510", "email": null, "website": null, "comment": "Sprechzeiten auch nach Vereinbarung", "lat": 47.71456, "lon": 11.15093}, {"id": 309, "name": "Wolfgang Bader (Facharzt f\u00fcr Allgemeinmedizin)", "type": "doctor", "street": "Bahnhofstra\u00dfe\u00a010", "city": "Mainburg", "postcode": "84048", "phone": "08751-2222", "email": "praxisbader@aol.com", "website": "http://praxisbader.de", "comment": null, "lat": 48.64224, "lon": 11.78317},