[{"name": "310KLINIK GmbH", "type": "hospital", "street": "Neumeyerstr. 46-48", "city": "N\u00fcrnberg", "postcode": "90411", "phone": "0911 / 58068 - 0", "email": "sandra.litz@310klinik.com", "website": "http://www.310klinik.com", "comment": null, "lat": "49.4808254", "lon": "11.1206648"}, {"name": "Abt. Alterspsychiatrie am St. Elisabethen-Klinikum", "type": "hospital", "street": "Elisabethenstrasse 15, Haus C", "city": "Ravensburg", "postcode": "88212", "phone": "0751 / 7601 - 2738", "email": "tilmann.steinert@zfp-zentrum.de", "website": "http://www.zfp-web.de", "comment": null, "lat": "47.78827", "lon": "9.618730000000001"}, {"name": "Abteilung f\u00fcr Kinder- und Jugendpsychiatrie, Psychosomatik und Psychotherapie der Herz-Jesu-Krankenhaus Fulda gGmbH", "type": "hospital", "street": "Am Weinberg 19", "city": "Bad Hersfeld", "postcode": "36251", "phone": "0661 / 15 - 5216", "email": "info@herz-jesu-krankenhaus.de", "website": "http://www.herz-jesu-krankenhaus.de", "comment": null, "lat": "50.8563186", "lon": "9.6904267"}, {"name": "Abteilung Psychosomatische Medizin und Psychotherapie Aulendorf", "type": "hospital", "street": "Safranmoosstra\u00dfe 5", "city": "Aulendorf", "postcode": "88326", "phone": "07583 / 33 - 1300", "email": "helmtraud.kantor@zfp-zentrum.de", "website": "http://www.schussental-klinik.de", "comment": null, "lat": "47.9534421", "lon": "9.6333996"}, {"name": "Achenbach Krankenhaus K\u00f6nigs Wusterhausen", "type": "hospital", "street": "K\u00f6penicker Strasse 29", "city": "K\u00f6nigs Wusterhausen", "postcode": "15711", "phone": "03546 / 75 - 151", "email": "m.kabiersch@klinikum-ds.de", "website": "https://www.klinikum-ds.de/home.html", "comment": null, "lat": "52.30215", "lon": "13.625060000000001"}, {"name": "ACURA Kliniken Albstadt GmbH", "type": "hospital", "street": "Robert-Koch-Str. 26", "city": "Albstadt", "postcode": "72461", "phone": "07432 / 169 - 1001", "email": "chris.behrens@acura-kliniken-albstadt.com", "website": "http://www.acura-kliniken-albstadt.de", "comment": null, "lat": "48.23738", "lon": "9.0336"}, {"name": "ACURA Kliniken Baden-Baden GmbH", "type": "hospital", "street": "Rotenbachtalstrasse 5", "city": "Baden-Baden", "postcode": "76530", "phone": "07221 / 352 - 603", "email": "w.krieg@acura-kliniken.com", "website": "http://www.acura-kliniken.com", "comment": null, "lat": "48.7642125", "lon": "8.2467984"}, {"name": "Acura Kliniken Rheinland-Pfalz GmbH Akutzentrum", "type": "hospital", "street": "Kaiser-Wilhelm-Str. 9-11", "city": "Bad Kreuznach", "postcode": "55543", "phone": "0671 / 931213", "email": "simon.vieten@kh-acura-kliniken.com", "website": "https://kh-acura-kliniken.com/", "comment": null, "lat": "49.84023143338762", "lon": "7.856609998186371"}, {"name": "Adula Klinik", "type": "hospital", "street": "In der Leite 6", "city": "Oberstdorf", "postcode": "87561", "phone": "08322 / 709 - 0", "email": "m.insam@adula-klinik.de", "website": "http://www.dr-reisach-kliniken.de", "comment": null, "lat": "47.41506", "lon": "10.2607"}, {"name": "AGAPLESION ALLGEMEINES KRANKENHAUS HAGEN gem. GmbH", "type": "hospital", "street": "Gr\u00fcnstr. 35", "city": "Hagen", "postcode": "58095", "phone": "02331 / 201 - 1001", "email": "verwaltung@akh-hagen.de", "website": "http://www.akh-hagen.de/", "comment": null, "lat": "51.35389", "lon": "7.46702"}, {"name": "AGAPLESION BETHANIEN KRANKENHAUS", "type": "hospital", "street": "Im Pr\u00fcfling 21-25", "city": "Frankfurt am Main", "postcode": "60389", "phone": "069 / 4608 - 300", "email": "juergen.schaefer@fdk.info", "website": "http://www.bethanien-krankenhaus.de/", "comment": null, "lat": "50.1287859", "lon": "8.7059221"}, {"name": "AGAPLESION BETHANIEN KRANKENHAUS HEIDELBERG", "type": "hospital", "street": "Rohrbacher Stra\u00dfe 149", "city": "Heidelberg", "postcode": "69126", "phone": "06221 / 319 - 1601", "email": "bpfeifer@bethanien-heidelberg.de", "website": "http://www.bethanien-heidelberg.de", "comment": null, "lat": "49.39147", "lon": "8.69112"}, {"name": "AGAPLESION BETHESDA KLINIK ULM gGmbH Akademisches Krankenhaus der Universit\u00e4t", "type": "hospital", "street": "Zollernring 26", "city": "Ulm", "postcode": "89073", "phone": "0731 / 187 - 201", "email": "tetiana.stroh@bethesda-ulm.de", "website": "http://www.bethesda-ulm.de", "comment": null, "lat": "48.402043", "lon": "10.006355"}, {"name": "AGAPLESION BETHESDA KRANKENHAUS WUPPERTAL gemeinn\u00fctzige GmbH", "type": "hospital", "street": "Hainstrasse 35", "city": "Wuppertal", "postcode": "42109", "phone": "0202 / 290 - 2503", "email": "geschaeftsfuehrung@bethtesda-wuppertal.de", "website": "http://www.bethesda-wuppertal.de", "comment": null, "lat": "51.2679551", "lon": "7.1309692"}, {"name": "AGAPLESION DIAKONIE KLINIKEN KASSEL", "type": "hospital", "street": "Herkulesstra\u00dfe 34", "city": "Kassel", "postcode": "34119", "phone": "0561 / 1002 - 3010", "email": "alfredkarl.walter@diako-kassel.de", "website": "http://www.diako-kassel.de", "comment": null, "lat": "51.3137539", "lon": "9.4619283"}, {"name": "AGAPLESION DIAKONIEKLINIKUM HAMBURG", "type": "hospital", "street": "Hohe Weide 17", "city": "Hamburg", "postcode": "20259", "phone": "040 / 79020 - 1001", "email": "joern.wessel@d-k-h.de", "website": "http://www.d-k-h.de", "comment": null, "lat": "53.5723664", "lon": "9.9669733"}, {"name": "AGAPLESION DIAKONIEKLINIKUM ROTENBURG gemeinn\u00fctzige GmbH", "type": "hospital", "street": "Elise-Averdieck-Str. 17", "city": "Rotenburg (W\u00fcmme)", "postcode": "27356", "phone": "04261 / 77 - 2203", "email": "d.bruenger@diako-online.de", "website": "http://www.diako-online.de", "comment": null, "lat": "53.1075102", "lon": "9.4127962"}, {"name": "AGAPLESION DIAKONIEKRANKENHAUS SEEHAUSEN", "type": "hospital", "street": "Dr. Albert Steinert Platz 1", "city": "Seehausen/Altmark", "postcode": "39615", "phone": "039386 / 6 - 232", "email": "maria.theis@dkhseehausen.de", "website": "http://www.dkhseehausen.de", "comment": null, "lat": "52.8820142", "lon": "11.7446619"}, {"name": "AGAPLESION ELISABETHENSTIFT EVANGELISCHES KRANKENHAUS", "type": "hospital", "street": "Landgraf-Georg-Stra\u00dfe 100", "city": "Darmstadt", "postcode": "64287", "phone": "06151 / 403 - 5001", "email": "becker.jens@eke-da.de", "website": "http://www.agaplesion-elisabethenstift.de/", "comment": null, "lat": "49.8754775", "lon": "8.6660746"}, {"name": "AGAPLESION EVANGELISCHES KRANKENHAUS HOLZMINDEN", "type": "hospital", "street": "Forster Weg 34", "city": "Holzminden", "postcode": "37603", "phone": "05531 / 705 - 217", "email": "marko.ellerhoff@evk-holzminden.de", "website": "http://www.evk-holzminden.de", "comment": null, "lat": "51.83434", "lon": "9.45476"}, {"name": "AGAPLESION Evangelisches Krankenhaus Mittelhessen", "type": "hospital", "street": "Paul-Zipp-Stra\u00dfe 171", "city": "Gie\u00dfen", "postcode": "35398", "phone": "0641 / 9606 - 117", "email": "sek.gf@ekm-gi.de", "website": "http://www.ekm-gi.de", "comment": null, "lat": "50.592177", "lon": "8.6495619"}, {"name": "AGAPLESION EV. BATHILDISKRANKENHAUS gemeinn\u00fctzige GmbH", "type": "hospital", "street": "Maulbeerallee 4", "city": "Bad Pyrmont", "postcode": "31812", "phone": "05281 / 99 - 1046", "email": "christoph-rolf.maier@bathildis.de", "website": "http://www.bathildis.de", "comment": null, "lat": "51.98533", "lon": "9.27381"}, {"name": "AGAPLESION EV. KLINIKUM SCHAUMBURG", "type": "hospital", "street": "Zum Schaumburger Klinikum 1", "city": "Obernkirchen", "postcode": "31683", "phone": "05724 / 9580 - 1005", "email": "geschaeftsfuehrung@ksl.agaplesion.de", "website": "https://www.ev-klinikum-schaumburg.de", "comment": null, "lat": "52.2647322", "lon": "9.1056936"}, {"name": "AGAPLESION KRANKENHAUS NEU BETHLEHEM gGmbH", "type": "hospital", "street": "Humboldtallee 8", "city": "G\u00f6ttingen", "postcode": "37073", "phone": "0551 / 494 - 111", "email": "c.gierke@neubethlehem.de", "website": "http://www.neubethlehem.de", "comment": null, "lat": "51.54038", "lon": "9.94221"}, {"name": "AGAPLESION MARKUS KRANKENHAUS", "type": "hospital", "street": "Wilhelm-Epstein-Stra\u00dfe 4", "city": "Frankfurt am Main", "postcode": "60431", "phone": "069 / 9533 - 2666", "email": "markus@fdk.info", "website": "http://www.markus-krankenhaus.de", "comment": null, "lat": "50.1365532", "lon": "8.6473454"}, {"name": "AGAPLESION Pneumologische Klinik Waldhof Elgershausen", "type": "hospital", "street": "Waldhof Elgershausen 1", "city": "Greifenstein", "postcode": "35753", "phone": "0641 / 9606 - 117", "email": "sek.ge@ekm-gi.de", "website": "https://www.klinik-waldhof.de/start/", "comment": null, "lat": "50.60707", "lon": "8.29104"}, {"name": "Ahrtal-Klinik", "type": "hospital", "street": "Hauptstr. 166", "city": "Sinzig-Bad Bodendorf", "postcode": "53489", "phone": "02642 / 407 - 0", "email": "info@ahrtal-klinik.de", "website": "http://www.ahrtal-klinik.de", "comment": null, "lat": "50.55788", "lon": "7.21247"}, {"name": "AKG Klinik Parchim GmbH", "type": "hospital", "street": "John-Brinckman-Stra\u00dfe 8-10", "city": "Parchim", "postcode": "19370", "phone": "03871 / 37 - 1001", "email": "m.duerkop@asklepios.com", "website": "Link zum Krankenhaus", "comment": null, "lat": "53.4296331", "lon": "11.8526249"}, {"name": "AKK Altonaer Kinderkrankenhaus gGmbH", "type": "hospital", "street": "Bleickenallee 38", "city": "Hamburg", "postcode": "22763", "phone": "040 / 88908 - 200", "email": "christiane.dienhold@kinderkrankenhaus.net", "website": "http://www.kinderkrankenhaus.net", "comment": null, "lat": "53.5528728", "lon": "9.9134806"}, {"name": "AK SEGEBERGER KLINIKEN GMBH", "type": "hospital", "street": "Krankenhausstra\u00dfe 2", "city": "Bad Segeberg", "postcode": "23795", "phone": "04551 / 8024910", "email": "info@segebergerkliniken.de", "website": "http://www.segebergerkliniken.de", "comment": null, "lat": "53.94144", "lon": "10.30932"}, {"name": "Alb-Donau Klinikum Blaubeuren", "type": "hospital", "street": "Ulmer Strasse 26", "city": "Blaubeuren", "postcode": "89143", "phone": "07391 / 5860", "email": "s.wiedermann@adk-gmbh.de", "website": "http://www.adk-gmbh.de", "comment": null, "lat": "48.40905", "lon": "9.78897"}, {"name": "Alb-Donau Klinikum Ehingen", "type": "hospital", "street": "Spitalstrasse 29", "city": "Ehingen", "postcode": "89584", "phone": "07391 / 5860", "email": "s.wiedermann@adk-gmbh.de", "website": "http://www.adk-gmbh.de", "comment": null, "lat": "48.28016", "lon": "9.71863"}, {"name": "Alb-Donau Klinikum Langenau", "type": "hospital", "street": "Karlstrasse 45", "city": "Langenau", "postcode": "89129", "phone": "07391 / 5860", "email": "s.wiedermann@adk-gmbh.de", "website": "http://www.adk-gmbh.de", "comment": null, "lat": "48.50058", "lon": "10.11655"}, {"name": "Albertinen Haus", "type": "hospital", "street": "Sellhopsweg 18-22", "city": "Hamburg", "postcode": "22459", "phone": "040 / 5588 - 1301", "email": "ralf.zastrau@immanuelalbertinen.de", "website": null, "comment": null, "lat": "53.62774", "lon": "9.92902"}, {"name": "Albertinen Krankenhaus", "type": "hospital", "street": "S\u00fcntelstra\u00dfe 11A", "city": "Hamburg", "postcode": "22457", "phone": "040 / 5588 - 2890", "email": "christian.rilz@immanuelalbertinen.de", "website": "http://www.albertinen.de/krankenhaeuser/albertinen_krankenhaus", "comment": null, "lat": "53.63052", "lon": "9.90498"}, {"name": "Albert-Schweitzer-Therapeutikum. Fachklinik f\u00fcr Kinder- und Jugendpsychiatrie und Psychotherapie", "type": "hospital", "street": "Pipping 5", "city": "Holzminden", "postcode": "37603", "phone": "05531 / 9311115", "email": "dammann@familienwerk.de", "website": "https://www.familienwerk.info/einrichtungen/klinik-holzminden", "comment": null, "lat": "51.82449", "lon": "9.48335"}, {"name": "Albklinik M\u00fcnsingen", "type": "hospital", "street": "Lautertalstra\u00dfe 47", "city": "M\u00fcnsingen", "postcode": "72525", "phone": "07121 / 200 - 4221", "email": "finke_n@klin-rt.de", "website": "http://www.kreiskliniken-reutlingen.de", "comment": null, "lat": "48.40419", "lon": "9.48977"}, {"name": "Alexianer Aachen GmbH", "type": "hospital", "street": "Alexianergraben 33", "city": "Aachen", "postcode": "52062", "phone": "0241 / 477010", "email": "info-ac@alexianer.de", "website": "http://www.alexianer-aachen.de", "comment": null, "lat": "50.7721372", "lon": "6.08174"}, {"name": "Alexianer-Klinik Meerbusch GmbH", "type": "hospital", "street": "Am Eisenbrand 20b/c", "city": "Meerbusch", "postcode": "40667", "phone": "02132 / 1376 - 11", "email": "d.voelz@alexianer.de", "website": null, "comment": null, "lat": "51.24824", "lon": "6.67514"}, {"name": "Alexianer Krankenhaus K\u00f6ln", "type": "hospital", "street": "K\u00f6lner Str. 64", "city": "K\u00f6ln", "postcode": "51149", "phone": "02203 / 3691111123", "email": "gertrud.jansen@alexianer.de", "website": "http://www.alexianer-koeln.de", "comment": null, "lat": "50.89724", "lon": "7.0429"}, {"name": "Alexianer Krankenhaus M\u00fcnster", "type": "hospital", "street": "Alexianerweg 9", "city": "M\u00fcnster", "postcode": "48163", "phone": "02501 / 966 - 20110", "email": "s.dransfeld@alexianer.de", "website": "http://www.alexianer.de", "comment": null, "lat": "51.8772712", "lon": "7.5650275"}, {"name": "Alexianer Krefeld GmbH - Krankenhaus Maria-Hilf", "type": "hospital", "street": "Diessemer Bruch 81", "city": "Krefeld", "postcode": "47805", "phone": "02151 / 334 - 0", "email": "m.schneider@alexianer.de", "website": "http://www.alexianer-krefeld.de", "comment": null, "lat": "51.3273009", "lon": "6.5909358"}, {"name": "Alexianer St. Joseph-Krankenhaus Berlin-Wei\u00dfensee", "type": "hospital", "street": "Gartenstr. 1", "city": "Berlin", "postcode": "13088", "phone": "030 / 92790 - 234", "email": "i.hauth@alexianer.de", "website": "http://www.alexianer-berlin-weissensee.de", "comment": null, "lat": "52.55145", "lon": "13.46664"}, {"name": "Alexianer T\u00f6nisvorst GmbH - Krankenhaus Maria-Hilf", "type": "hospital", "street": "Hospitalstra\u00dfe 2", "city": "T\u00f6nisvorst", "postcode": "47918", "phone": "02151 / 334 - 3551", "email": "m.schneider@alexianer.de", "website": "http://www.alexianer-toenisvorst.de", "comment": null, "lat": "51.32286", "lon": "6.48886"}, {"name": "Alexius/Josef Krankenhaus", "type": "hospital", "street": "Nordkanalallee 99", "city": "Neuss", "postcode": "41464", "phone": "02131 / 529 - 29000", "email": "m.koehne@ak-neuss.de", "website": "http://www.psychiatrie-neuss.de", "comment": null, "lat": "51.19135", "lon": "6.70135"}, {"name": "Alexius/Josef Krankenhaus - Tagesklinik Benedikt", "type": "hospital", "street": "Steinhausstra\u00dfe 40", "city": "Neuss", "postcode": "41462", "phone": "02131 / 529 - 29000", "email": "m.koehne@ak-neuss.de", "website": "http://www.psychiatrie-neuss.de", "comment": null, "lat": "51.2051893", "lon": "6.6682086"}, {"name": "Alexius/Josef Krankenhaus - Tagesklinik Luzia", "type": "hospital", "street": "Elsa-Br\u00e4ndstr\u00f6m-Str. 17", "city": "Dormagen", "postcode": "41540", "phone": "021321 / 529 - 29000", "email": "m.koehne@ak-neuss.de", "website": "http://www.psychiatrie-neuss.de", "comment": null, "lat": "51.0712", "lon": "6.80948"}, {"name": "Alexius/Josef Krankenhaus/ Tagesklinik St. Anna", "type": "hospital", "street": "Am Hasenberg 46", "city": "Neuss", "postcode": "41462", "phone": "02131 / 529 - 29000", "email": "m.koehne@ak-neuss.de", "website": "http://www.psychiatrie-neuss.de", "comment": null, "lat": "51.21362", "lon": "6.65691"}, {"name": "Alexius/Josef Krankenhaus / Tagesklinik St. Augustinus", "type": "hospital", "street": "Montanusstra\u00dfe 54", "city": "Grevenbroich", "postcode": "41515", "phone": "02131 / 529 - 29000", "email": "m.koehne@ak-neuss.de", "website": "https://www.psychiatrie-neuss.de", "comment": null, "lat": "51.0900906", "lon": "6.5969"}, {"name": "Alexius/Josef Krankenhaus -Tagesklinik St. Bernhard", "type": "hospital", "street": "Bergh\u00e4uschensweg 4", "city": "Neuss", "postcode": "41464", "phone": "02131 / 529 - 29000", "email": "m.koehne@ak-neuss.de", "website": "http://www.psychiatrie-neuss.de", "comment": null, "lat": "51.1869", "lon": "6.70641"}, {"name": "Alexius/Josef Krankenhaus - Tagesklinik St. Fabiola", "type": "hospital", "street": "Hindenburgstra\u00dfe 56", "city": "Korschenbroich", "postcode": "41352", "phone": "02131 / 529 - 29000", "email": "m.koehne@ak-neuss.de", "website": "http://www.psychiatrie-neuss.de", "comment": null, "lat": "51.1942794", "lon": "6.5134597"}, {"name": "Alfried Krupp Krankenhaus R\u00fcttenscheid", "type": "hospital", "street": "Alfried-Krupp-Stra\u00dfe 21", "city": "Essen", "postcode": "45131", "phone": "0201 / 434 - 2330", "email": "guenther.flaemig@krupp-krankenhaus.de", "website": "https://www.krupp-krankenhaus.de", "comment": null, "lat": "51.42591", "lon": "7.00707"}, {"name": "Alfried Krupp Krankenhaus Steele", "type": "hospital", "street": "Hellweg 100", "city": "Essen", "postcode": "45276", "phone": "0201 / 805 - 1001", "email": "guenther.flaemig@krupp-krankenhaus.de", "website": "http://www.krupp-krankenhaus.de", "comment": null, "lat": "51.44995", "lon": "7.09024"}, {"name": "Algesiologikum Tagesklinik f\u00fcr Schmerzmedizin", "type": "hospital", "street": "Hessstr. 22", "city": "M\u00fcnchen", "postcode": "80799", "phone": "089 / 452445 - 221", "email": "jennerwein@algesiologikum.de", "website": "https://www.algesiologikum.de", "comment": null, "lat": "48.1511138", "lon": "11.5696251"}, {"name": "Alice-Hospital", "type": "hospital", "street": "Dieburger Stra\u00dfe 31", "city": "Darmstadt", "postcode": "64287", "phone": "06151 / 402 - 1000", "email": "marcus.fleischhauer@alice-hospital.de", "website": "http://www.alice-hospital.de", "comment": null, "lat": "49.8773446", "lon": "8.6629182"}, {"name": "Aller-Weser-Klinik gGmbH, Krankenhaus Achim", "type": "hospital", "street": "Bierdener M\u00fchle 2", "city": "Achim", "postcode": "28832", "phone": "04202 / 998 - 285", "email": "m.baehr@aller-weser-klinik.de", "website": "http://www.aller-weser-klinik.de", "comment": null, "lat": "53.0188625", "lon": "9.0037724"}, {"name": "Aller-Weser-Klinik gGmbH, Krankenhaus Verden", "type": "hospital", "street": "Eitzer Stra\u00dfe 20", "city": "Verden (Aller)", "postcode": "27283", "phone": "04231 / 103 - 301", "email": "m.baehr@aller-weser-klinik.de", "website": "http://www.aller-weser-klinik.de", "comment": null, "lat": "52.9148784", "lon": "9.2328196"}, {"name": "ALLGEMEINES KRANKENHAUS CELLE", "type": "hospital", "street": "Siemensplatz 4", "city": "Celle", "postcode": "29223", "phone": "05141 / 72 - 2001", "email": "martin.windmann@akh-celle.de", "website": "http://www.akh-celle.de", "comment": null, "lat": "52.6287954", "lon": "10.0855827"}, {"name": "Allgemeines Krankenhaus Viersen GmbH", "type": "hospital", "street": "Hoserkirchweg 63", "city": "Viersen", "postcode": "41747", "phone": "02162 / 104 - 2282", "email": "geschaeftsfuehrung@akh-viersen.de", "website": "http://www.akh-viersen.de", "comment": null, "lat": "51.25118", "lon": "6.38288"}, {"name": "Allgemeinpsychiatrie und PSM Friedrichshafen-Bodensee", "type": "hospital", "street": "R\u00f6ntgenstra\u00dfe 8", "city": "Friedrichshafen", "postcode": "88048", "phone": "0751 / 7601 - 2738", "email": "tilman.steinert@zfp-zentrum.de", "website": "http://www.zfp-web.de", "comment": null, "lat": "47.67189", "lon": "9.42908"}, {"name": "Allgemeinpsychiatrie Wangen", "type": "hospital", "street": "Am Engelberg 39", "city": "Wangen", "postcode": "88239", "phone": "0751 / 7601 - 2738", "email": "tilman.steinert@zfp-zentrum.de", "website": "http://www.zfp-web.de", "comment": null, "lat": "47.692099933387624", "lon": "9.84629189818637"}, {"name": "Allgemeinpsychiatrische Tagesklinik KIELER FENSTER", "type": "hospital", "street": "Alte L\u00fcbecker Chaussee 1", "city": "Kiel", "postcode": "24114", "phone": "0431 / 64980 - 0", "email": "g.riederle@kieler-fenster.de", "website": "http://www.kieler-fenster.de", "comment": null, "lat": "54.30862", "lon": "10.12625"}, {"name": "Altmark Klinikum Gardelegen", "type": "hospital", "street": "Ernst-von-Bergmann-Stra\u00dfe 22", "city": "Gardelegen", "postcode": "39638", "phone": "03907 / 79 - 1200", "email": "f.landsmann@altmark-klinikum.de", "website": "https://www.altmark-klinikum.de/seiteninfos/startseite/", "comment": null, "lat": "52.5231149", "lon": "11.3822278"}, {"name": "Altmark Klinikum Salzwedel", "type": "hospital", "street": "Brunnenstra\u00dfe 1", "city": "Salzwedel", "postcode": "29410", "phone": "03901 / 88 - 7035", "email": "f.landsmann@altmark-klinikum.de", "website": "https://www.altmark-klinikum.de/seiteninfos/startseite/", "comment": null, "lat": "52.8561691", "lon": "11.1451595"}, {"name": "AMEOS Klinikum Alfeld", "type": "hospital", "street": "Landrat-Beushausen-Str. 26", "city": "Alfeld", "postcode": "31061", "phone": "05181 / 707 - 100", "email": "jsto.verw@alfeld.ameos.de", "website": "http://www.ameos.eu", "comment": null, "lat": "51.99421", "lon": "9.83258"}, {"name": "AMEOS Klinikum Am B\u00fcrgerpark Bremerhaven", "type": "hospital", "street": "Schiffdorfer Chaussee 29", "city": "Bremerhaven", "postcode": "27574", "phone": "0471 / 182 - 1318", "email": "rehr.verw@buergerpark.ameos.de", "website": "http://www.ameos.eu/standorte/ameos-west/bremerhaven/ameos-klinikum-am-buergerpark-bremerhaven/", "comment": null, "lat": "53.5324724", "lon": "8.60468"}, {"name": "AMEOS Klinikum Anklam", "type": "hospital", "street": "Hospitalstra\u00dfe 19", "city": "Anklam", "postcode": "17389", "phone": "039771 / 41 - 651", "email": "info@ueckermuende.ameos.de", "website": "http://www.ameos.eu", "comment": null, "lat": "53.84889", "lon": "13.69962"}, {"name": "AMEOS Klinikum Aschersleben-Sta\u00dffurt GmbH", "type": "hospital", "street": "Eislebener Stra\u00dfe 7a", "city": "Aschersleben", "postcode": "06449", "phone": "03473 / 97 - 1000", "email": "mstr.verw@ost.ameos.de", "website": "http://www.ameos.eu", "comment": null, "lat": "51.7476805", "lon": "11.4586008"}, {"name": "AMEOS Klinikum Bernburg", "type": "hospital", "street": "Kustrenaer Stra\u00dfe 98", "city": "Bernburg", "postcode": "06406", "phone": "03471 / 341000", "email": "marc.bernstaedt@ameos.de", "website": "http://www.ameos.eu", "comment": null, "lat": "51.7824146", "lon": "11.7329505"}, {"name": "AMEOS Klinikum Dr. Heines Bremen", "type": "hospital", "street": "Rockwinkeler Landstra\u00dfe 110", "city": "Bremen", "postcode": "28325", "phone": "0421 / 4289 - 295", "email": "shel.zd@bremen.ameos.de", "website": "http://www.ameos.eu/standorte/ameos-west/bremen/ameos-klinikum-dr-heines-bremen/", "comment": null, "lat": "53.07565", "lon": "8.94106"}, {"name": "AMEOS Klinikum Eutin", "type": "hospital", "street": "Janusstra\u00dfe 5", "city": "Eutin", "postcode": "23701", "phone": "00494561 / 611 - 4300", "email": "skad.zd@neustadt.ameos.de", "website": "http://www.ameos.eu", "comment": null, "lat": "54.1358828", "lon": "10.6068152"}, {"name": "AMEOS Klinikum Halberstadt", "type": "hospital", "street": "Gleimstra\u00dfe 5", "city": "Halberstadt", "postcode": "38820", "phone": "03941 / 64 - 2236", "email": "ahab.verw@halberstadt.ameos.de", "website": "http://www.ameos.eu/standorte/ameos-ost/halberstadt/", "comment": null, "lat": "51.90007", "lon": "11.0531"}, {"name": "AMEOS Klinikum Haldensleben", "type": "hospital", "street": "Kiefhozstra\u00dfe 27", "city": "Haldensleben", "postcode": "39340", "phone": "03904 / 474 - 106", "email": "dkay.verw@haldensleben.ameos.de", "website": "http://www.ameos.eu", "comment": null, "lat": "52.28573", "lon": "11.37695"}, {"name": "AMEOS Klinikum Haldensleben", "type": "hospital", "street": "Kiefholzstra\u00dfe 4", "city": "Haldensleben", "postcode": "39340", "phone": "03904 / 474 - 106", "email": "dkay.verw@haldensleben.ameos.de", "website": "http://www.ameos.eu", "comment": null, "lat": "52.28399", "lon": "11.37104"}, {"name": "AMEOS Klinikum Hameln", "type": "hospital", "street": "Wilhelmstra\u00dfe 5", "city": "Hameln", "postcode": "31785", "phone": "05121 / 103 - 217", "email": "info@hameln.ameos.de", "website": "http://www.ameos.eu/standorte/ameos-west/hameln/ameos-klinikum-hameln/", "comment": null, "lat": "52.10294", "lon": "9.3635"}, {"name": "AMEOS Klinikum Heiligenhafen", "type": "hospital", "street": "Friedrich-Ebert-Stra\u00dfe 100", "city": "Heiligenhafen", "postcode": "23774", "phone": "04561 / 611 - 4300", "email": "skad.zd@neustadt.ameos.de", "website": "http://www.ameos.eu", "comment": null, "lat": "54.37418", "lon": "10.96229"}, {"name": "AMEOS Klinikum Hildesheim", "type": "hospital", "street": "Goslarsche Landstra\u00dfe 60", "city": "Hildesheim", "postcode": "31135", "phone": "05121 / 103 - 217", "email": "info@hildesheim.ameos.de", "website": "https://www.ameos.eu/standorte/ameos-west/hildesheim/", "comment": null, "lat": "52.1464348", "lon": "9.9842092"}, {"name": "AMEOS Klinikum Inntal", "type": "hospital", "street": "Jakob-Weindler-Str. 1", "city": "Simbach am Inn", "postcode": "84359", "phone": "08571 / 985 - 404", "email": "bnus.verw@inntal.ameos.de", "website": "http://www.ameos.eu", "comment": null, "lat": "48.2639031", "lon": "13.01455"}, {"name": "AMEOS Klinikum Kaiserstuhl", "type": "hospital", "street": "Brunngasse 1", "city": "Vogtsburg-Bischoffingen", "postcode": "79235", "phone": "07662 / 811 - 404", "email": "cwil.med@vogtsburg.ameos.de", "website": "http://www.ameos.de", "comment": null, "lat": "48.1045562", "lon": "7.6316928"}, {"name": "AMEOS Klinikum Kiel", "type": "hospital", "street": "Tiroler Ring 621-62", "city": "Kiel", "postcode": "24147", "phone": "04561 / 611 - 4300", "email": "skad.zd@neustadt.ameos.de", "website": "http://www.ameos.eu", "comment": null, "lat": "54.29661", "lon": "10.1849"}, {"name": "AMEOS Klinikum L\u00fcbeck", "type": "hospital", "street": "Kahlhorststra\u00dfe 33", "city": "L\u00fcbeck", "postcode": "23562", "phone": "00494561 / 611 - 4300", "email": "skad.zd@neustadt.ameos.de", "website": "http://www.ameos.eu", "comment": null, "lat": "53.8500108", "lon": "10.6912749"}, {"name": "AMEOS Klinikum Mitte Bremerhaven", "type": "hospital", "street": "Wiener Str. 1", "city": "Bremerhaven", "postcode": "27568", "phone": "0471 / 182 - 1318", "email": "amat.verw@buergerpark.ameos.de", "website": "http://www.ameos.eu/standorte/ameos-west/bremerhaven/ameos-klinikum-st-joseph-bremerhaven/", "comment": null, "lat": "53.55207", "lon": "8.5761"}, {"name": "AMEOS Klinikum Neustadt", "type": "hospital", "street": "Wiesenhof 1", "city": "Neustadt i. H.", "postcode": "23730", "phone": "00494561 / 611 - 4300", "email": "skad.zd@neustadt.ameos.de", "website": "http://www.ameos.eu", "comment": null, "lat": "54.1056029", "lon": "10.794915"}, {"name": "AMEOS Klinikum Oldenburg", "type": "hospital", "street": "Hoheluftstra\u00dfe 10", "city": "Oldenburg i. H.", "postcode": "23758", "phone": "00494561 / 611 - 4300", "email": "skad.zd@neustadt.ameos.de", "website": "http://www.ameos.eu", "comment": null, "lat": "54.2921693", "lon": "10.8805888"}, {"name": "AMEOS Klinikum Oldenburg", "type": "hospital", "street": "M\u00fchlenkamp 5", "city": "Oldenburg i. H.", "postcode": "23758", "phone": "00494561 / 611 - 4300", "email": "skad.zd@neustadt.ameos.de", "website": "http://www.ameos.eu", "comment": null, "lat": "54.29026143338763", "lon": "10.88135999818637"}, {"name": "AMEOS Klinikum Osnabr\u00fcck", "type": "hospital", "street": "Knollstra\u00dfe 31", "city": "Osnabr\u00fcck", "postcode": "49088", "phone": "0541 / 313 - 206", "email": "ehring.ralph@bhv.ameos.de", "website": "http://www.ameos.eu/standorte/ameos-west/osnabrueck/", "comment": null, "lat": "52.28816", "lon": "8.05231"}, {"name": "AMEOS Klinikum Preetz", "type": "hospital", "street": "Am Krankenhaus 5a", "city": "Preetz", "postcode": "24211", "phone": "00494561 / 611 - 4300", "email": "skad.zd@neustadt.ameos.de", "website": "http://www.ameos.eu", "comment": null, "lat": "54.23876", "lon": "10.27495"}, {"name": "AMEOS Klinikum Sch\u00f6nebeck", "type": "hospital", "street": "K\u00f6thener Str. 13", "city": "Sch\u00f6nebeck", "postcode": "39218", "phone": "03928 / 64 - 1601", "email": "lutz.moeller@schoenebeck.ameos.de", "website": "http://www.ameos.eu/klinikum-schoenebeck.html", "comment": null, "lat": "52.0127074", "lon": "11.7391689"}, {"name": "AMEOS Klinikum Seepark Geestland", "type": "hospital", "street": "Langener Str. 66", "city": "Geestland", "postcode": "27607", "phone": "0471 / 182 - 1318", "email": "amat.verw@buergerpark.ameos.de", "website": "https://www.ameos.eu/standorte/ameos-west/geestland/ameos-klinikum-seepark-geestland/", "comment": null, "lat": "53.6160947", "lon": "8.631667"}, {"name": "AMEOS Klinikum Sta\u00dffurt", "type": "hospital", "street": "Bodestr. 11", "city": "Sta\u00dffurt", "postcode": "39418", "phone": "03473 / 971000", "email": "mstr.verw@ost.ameos.de", "website": "http://www.ameos.eu", "comment": null, "lat": "51.85242", "lon": "11.59279"}, {"name": "AMEOS Klinikum Ueckerm\u00fcnde", "type": "hospital", "street": "Ravensteinstra\u00dfe 23", "city": "Ueckerm\u00fcnde", "postcode": "17373", "phone": "039771 / 41 - 651", "email": "info@ueckermuende.ameos.de", "website": "http://www.ameos.eu", "comment": null, "lat": "53.7399059", "lon": "14.0226836"}, {"name": "AMEOS Tagesklinik f\u00fcr Psychiatrie und Psychotherapie", "type": "hospital", "street": "Torgelower Stra\u00dfe 14", "city": "Pasewalk", "postcode": "17309", "phone": "039771 / 41 - 650", "email": "info@ueckermuende.ameos.de", "website": "http://ameos.eu", "comment": null, "lat": "53.50498", "lon": "14.00379"}, {"name": "Ammerland-Klinik Westerstede", "type": "hospital", "street": "Lange Stra\u00dfe 38", "city": "Westerstede", "postcode": "26655", "phone": "04488 / 50 - 3700", "email": "axel.weber@ammerland-klinik.de", "website": "http://www.ammerland-klinik.de/", "comment": null, "lat": "53.256831433387624", "lon": "7.919149998186371"}, {"name": "ANregiomed Klinik Dinkelsb\u00fchl", "type": "hospital", "street": "Crailsheimerstra\u00dfe 6", "city": "Dinkelsb\u00fchl", "postcode": "91550", "phone": "09851 / 91 - 500", "email": "info@anregiomed.de", "website": "http://www.anregiomed.de/dinkelsbuehl/", "comment": null, "lat": "49.07482", "lon": "10.31756"}, {"name": "ANregiomed Klinik Rothenburg", "type": "hospital", "street": "Ansbacher Str. 131", "city": "Rothenburg", "postcode": "91541", "phone": "09861 / 707 - 0", "email": "info@anregiomed.de", "website": "http://www.anregiomed.de/rothenburg", "comment": null, "lat": "49.37737", "lon": "10.20015"}, {"name": "ANregiomed Klinikum Ansbach", "type": "hospital", "street": "Escherichstra\u00dfe 1", "city": "Ansbach", "postcode": "91522", "phone": "0981 / 484 - 2236", "email": "info@anregiomed.de", "website": "http://anregiomed.de/ansbach/", "comment": null, "lat": "49.32074", "lon": "10.56014"}, {"name": "Arabella-Klinik GmbH", "type": "hospital", "street": "Arabellastra\u00dfe 5", "city": "M\u00fcnchen", "postcode": "81925", "phone": "089 / 922092 - 0", "email": "info@arabellaklinik.de", "website": "http://www.arabellaklinik.de", "comment": null, "lat": "48.1511748", "lon": "11.6184494"}, {"name": "Arberlandklinik Viechtach", "type": "hospital", "street": "Karl-Gareis-Str. 31", "city": "Viechtach", "postcode": "94234", "phone": "09942 / 20156", "email": "vorstand@arberlandkliniken.de", "website": "http://www.arberlandkliniken.de", "comment": null, "lat": "49.08529", "lon": "12.8752"}, {"name": "Arberlandklinik Zwiesel", "type": "hospital", "street": "Arberlandstra\u00dfe 1", "city": "Zwiesel", "postcode": "94227", "phone": "09922 / 99 - 301", "email": "vorstand@arberlandkliniken.de", "website": "http://www.arberlandkliniken.de", "comment": null, "lat": "49.00752", "lon": "13.21836"}, {"name": "ARCUS Klinik", "type": "hospital", "street": "Rastatter Str. 17-19", "city": "Pforzheim", "postcode": "75179", "phone": "07231 / 60556 - 3001", "email": "goos@sportklinik.de", "website": "http://www.arcus-klinik.de", "comment": null, "lat": "48.89779", "lon": "8.66603"}, {"name": "Artemed Fachklinik M\u00fcnchen", "type": "hospital", "street": "Mozartstra\u00dfe 14a-16", "city": "M\u00fcnchen", "postcode": "80336", "phone": "089 / 51409 - 270", "email": "michael.kneis@artemed.de", "website": "http://www.artemedmuenchen.de", "comment": null, "lat": "48.1302093", "lon": "11.5552233"}, {"name": "Artemed Fachklinik Prof.Dr.Dr.Salfeld GmbH und Co.KG", "type": "hospital", "street": "Portastra\u00dfe 33-35", "city": "Bad Oeynhausen", "postcode": "32545", "phone": "05731 / 182 - 0", "email": "christina.gerhardt@artemed.de", "website": "http://www.artemed.de", "comment": null, "lat": "52.2041257", "lon": "8.8047022"}, {"name": "Asklepios-ASB Klinik Radeberg", "type": "hospital", "street": "Pulsnitzer Stra\u00dfe 60", "city": "Radeberg", "postcode": "01454", "phone": "03528 / 459 - 100", "email": "se.eckert@asklepios.com", "website": "Link zum Krankenhaus", "comment": null, "lat": "51.1236", "lon": "13.9303"}, {"name": "Asklepios Fachkliniken M\u00fcnchen-Gauting", "type": "hospital", "street": "Robert-Koch-Allee 2", "city": "Gauting", "postcode": "82131", "phone": "089 / 85791 - 7101", "email": "j.wissler@asklepios.com", "website": "http://www.asklepios.com/gauting", "comment": null, "lat": "48.06635", "lon": "11.35341"}, {"name": "Asklepios Fachklinik F\u00fcrstenhof GmbH", "type": "hospital", "street": "Brunnenallee 39", "city": "Bad Wildungen", "postcode": "34537", "phone": "05621 / 704 - 4105", "email": "m.reggentin@asklepios.com", "website": "https://www.asklepios.com/bad-wildungen/fuerstenhof/", "comment": null, "lat": "51.1147172", "lon": "9.1088369"}, {"name": "Asklepios Fachklinikum Brandenburg", "type": "hospital", "street": "Anton-Saefkow-Allee 2", "city": "Brandenburg an der Havel", "postcode": "14772", "phone": "03381 / 78 - 2102", "email": "d.wolarz@asklepios.com", "website": null, "comment": null, "lat": "52.4287377", "lon": "12.4976049"}, {"name": "Asklepios Fachklinikum Brandenburg TK Brandenburg an der Havel", "type": "hospital", "street": "Klingenbergstra\u00dfe 3", "city": "Brandenburg an der Havel", "postcode": "14772", "phone": "03381 / 78 - 2102", "email": "d.wolarz@asklepios.com", "website": "http://www.asklepios.com/brandenburg/", "comment": null, "lat": "52.40775", "lon": "12.53276"}, {"name": "Asklepios Fachklinikum Brandenburg TK Potsdam", "type": "hospital", "street": "Rudolf-Breitscheid-Stra\u00dfe 12", "city": "Potsdam", "postcode": "14482", "phone": "03381 / 78 - 2102", "email": "d.wolarz@asklepios.com", "website": null, "comment": null, "lat": "52.393064", "lon": "13.0882002"}, {"name": "Asklepios Fachklinikum Brandenburg TK Rathenow", "type": "hospital", "street": "Forststra\u00dfe 45", "city": "Rathenow", "postcode": "14712", "phone": "03381 / 78 - 2102", "email": "d.wolarz@asklepios.com", "website": "http://www.asklepios.com/brandenburg/", "comment": null, "lat": "52.6059877", "lon": "12.3464951"}, {"name": "Asklepios Fachklinikum Brandenburg TK Teltow", "type": "hospital", "street": "Rheinstra\u00dfe 10 A", "city": "Teltow", "postcode": "14513", "phone": "03381 / 78 - 2102", "email": "d.wolarz@asklepios.com", "website": "http://www.asklepios.com/brandenburg/", "comment": null, "lat": "52.399584", "lon": "13.246486"}, {"name": "Asklepios Fachklinikum Brandenburg TK Werder", "type": "hospital", "street": "Unter den Linden 1", "city": "Werder", "postcode": "14542", "phone": "03381 / 78 - 2102", "email": "d.wolarz@asklepios.com", "website": "http://www.asklepios.com/brandenburg/", "comment": null, "lat": "52.3775474", "lon": "12.9371529"}, {"name": "Asklepios Fachklinikum G\u00f6ttingen", "type": "hospital", "street": "Rosdorfer Weg 70", "city": "G\u00f6ttingen", "postcode": "37081", "phone": "0551 / 402 - 0", "email": "m.huppertz@asklepios.com", "website": "https://www.asklepios.com/goettingen/", "comment": null, "lat": "51.52517", "lon": "9.91946"}, {"name": "Asklepios Fachklinikum G\u00f6ttingen - TK Friedl\u00e4nder Weg", "type": "hospital", "street": "Friedl\u00e4nder Weg 55", "city": "G\u00f6ttingen", "postcode": "37085", "phone": "0551 / 402 - 0", "email": "m.huppertz@asklepios.com", "website": "https://www.asklepios.com/goettingen/", "comment": null, "lat": "51.52851", "lon": "9.94617"}, {"name": "Asklepios Fachklinikum G\u00f6ttingen - TK Seesen", "type": "hospital", "street": "Tannenbusch 11", "city": "Seesen", "postcode": "38723", "phone": "0551 / 402 - 0", "email": "m.huppertz@asklepios.com", "website": "https://www.asklepios.com/goettingen/experten/psychotherapie/tk-seesen/", "comment": null, "lat": "51.87996", "lon": "10.21491"}, {"name": "Asklepios Fachklinikum L\u00fcbben", "type": "hospital", "street": "Luckauer Stra\u00dfe 17", "city": "L\u00fcbben", "postcode": "15907", "phone": "03546 / 29 - 206", "email": "ja.pietschmann@asklepios.com", "website": "http://www.asklepios.com/luebben", "comment": null, "lat": "51.93525", "lon": "13.88691"}, {"name": "Asklepios Fachklinikum L\u00fcbben TK Cottbus", "type": "hospital", "street": "Karl-Liebknecht-Stra\u00dfe 109", "city": "Cottbus", "postcode": "03045", "phone": "03546 / 29 - 206", "email": "ja.pietschmann@asklepios.com", "website": null, "comment": null, "lat": "51.7568844", "lon": "14.3219071"}, {"name": "Asklepios Fachklinikum L\u00fcbben TK K\u00f6nigs Wusterhausen", "type": "hospital", "street": "Cottbusser Stra\u00dfe 53 a+b", "city": "K\u00f6nigs Wusterhausen", "postcode": "15711", "phone": "03546 / 29 - 206", "email": "ja.pietschmann@asklepios.com", "website": null, "comment": null, "lat": "52.2956327", "lon": "13.6251825"}, {"name": "Asklepios Fachklinikum L\u00fcbben TK Vetschau", "type": "hospital", "street": "Bahnhofsstra\u00dfe 35", "city": "Vetschau", "postcode": "03226", "phone": "03546 / 29 - 206", "email": "ja.pietschmann@asklepios.com", "website": null, "comment": null, "lat": "51.7890324", "lon": "14.0803867"}, {"name": "Asklepios Fachklinikum Stadtroda", "type": "hospital", "street": "Bahnhofstr. 1a", "city": "Stadtroda", "postcode": "07646", "phone": "036428 / 56 - 1100", "email": "v.thesing@asklepios.com", "website": null, "comment": null, "lat": "50.8626861", "lon": "11.7244934"}, {"name": "Asklepios Fachklinikum Stadtroda TK Gera", "type": "hospital", "street": "Werner-Petzold-Stra\u00dfe 17", "city": "Gera", "postcode": "07549", "phone": "036428 / 56 - 1100", "email": "v.thesing@asklepios.com", "website": "https://www.asklepios.com/stadtroda/experten/tagesklinik-kinder-jugendpsychiatrie/", "comment": null, "lat": "50.83717", "lon": "12.06297"}, {"name": "Asklepios Fachklinikum Stadtroda TK Greiz", "type": "hospital", "street": "Wichmannstra\u00dfe 12", "city": "Greiz", "postcode": "07973", "phone": "036428 / 56 - 1100", "email": "v.thesing@asklepios.com", "website": "https://www.asklepios.com/stadtroda/experten/tagesklinik-greiz/", "comment": null, "lat": "50.66255", "lon": "12.197610000000001"}, {"name": "Asklepios Fachklinikum Stadtroda TK P\u00f6\u00dfneck", "type": "hospital", "street": "Kurzackerstr. 12", "city": "P\u00f6\u00dfneck", "postcode": "07381", "phone": "036428 / 56 - 1100", "email": "v.thesing@asklepios.com", "website": null, "comment": null, "lat": "50.69876", "lon": "11.6146"}, {"name": "Asklepios Fachklinikum Teupitz", "type": "hospital", "street": "Buchholzer Stra\u00dfe 21", "city": "Teupitz", "postcode": "15755", "phone": "033766 / 66 - 388", "email": "m.jehle@asklepios.com", "website": "http://www.asklepios.com/teupitz/", "comment": null, "lat": "52.13231", "lon": "13.61663"}, {"name": "Asklepios Fachklinikum Teupitz TK K\u00f6nigs Wusterhausen", "type": "hospital", "street": "K\u00f6penicker Stra\u00dfe 29", "city": "K\u00f6nigs Wusterhausen", "postcode": "15711", "phone": "033766 / 66 - 388", "email": "m.jehle@asklepios.com", "website": "http://www.asklepios.com/teupitz/", "comment": null, "lat": "52.30215143338762", "lon": "13.627919998186371"}, {"name": "Asklepios Fachklinikum Teupitz TK Ludwigsfelde", "type": "hospital", "street": "Stra\u00dfe der Jugend 63", "city": "Ludwigsfelde", "postcode": "14974", "phone": "033766 / 66 - 388", "email": "m.jehle@asklepios.com", "website": null, "comment": null, "lat": "52.3099649", "lon": "13.2593783"}, {"name": "Asklepios Fachklinikum Teupitz TK Sch\u00f6nefeld - Wa\u00dfmannsdorf", "type": "hospital", "street": "Am Airport 1", "city": "Sch\u00f6nefeld - Wa\u00dfmannsdorf", "postcode": "12529", "phone": "033766 / 66 - 388", "email": "m.jehle@asklepios.com", "website": "http://www.asklepios.com/teupitz", "comment": null, "lat": "52.36913", "lon": "13.47065"}, {"name": "Asklepios Fachklinikum Tiefenbrunn", "type": "hospital", "street": "Tiefenbrunn", "city": "Rosdorf", "postcode": "37124", "phone": "0551 / 4020 - 0", "email": "m.huppertz@asklepios.com", "website": null, "comment": null, "lat": "51.4996683", "lon": "9.8717972"}, {"name": "Asklepios Fachklinikum Wiesen", "type": "hospital", "street": "Kirchberger Stra\u00dfe 2", "city": "Wildenfels", "postcode": "08134", "phone": "037603 / 54 - 0", "email": "a.weiss@asklepios.com", "website": "http://www.asklepios.com/wiesen", "comment": null, "lat": "50.64857", "lon": "12.55866"}, {"name": "Asklepios Harzklinik Bad Harzburg", "type": "hospital", "street": "Ilsenburger Stra\u00dfe 95", "city": "Bad Harzburg", "postcode": "38667", "phone": "05321 / 441551", "email": "e.giese@asklepios.com", "website": "http://www.asklepios.com/badharzburg", "comment": null, "lat": "51.88629", "lon": "10.57542"}, {"name": "Asklepios Harzklinik Clausthal-Zellerfeld", "type": "hospital", "street": "Windm\u00fchlenstra\u00dfe 1", "city": "Clausthal-Zellerfeld", "postcode": "38678", "phone": "05321 / 441551", "email": "e.giese@asklepios.com", "website": "http://www.asklepios.com/clausthalzellerfeld", "comment": null, "lat": "51.80789", "lon": "10.33362"}, {"name": "Asklepios Harzklinik Goslar", "type": "hospital", "street": "K\u00f6sliner Stra\u00dfe 12", "city": "Goslar", "postcode": "38642", "phone": "05321 / 44 - 1551", "email": "e.giese@asklepios.com", "website": "http://www.asklepios.com/goslar", "comment": null, "lat": "51.92842", "lon": "10.44257"}, {"name": "Asklepios Klinik Altona", "type": "hospital", "street": "Paul-Ehrlich-Stra\u00dfe 1", "city": "Hamburg", "postcode": "22763", "phone": "040 / 181881 - 2010", "email": "an.trumpp@asklepios.com", "website": "https://www.asklepios.com/hamburg/altona/", "comment": null, "lat": "53.55412", "lon": "9.90264"}, {"name": "Asklepios Klinik Bad Oldesloe", "type": "hospital", "street": "Sch\u00fctzensta\u00dfe 55", "city": "Bad Oldesloe", "postcode": "23843", "phone": "04531 / 68 - 1501", "email": "k.schmolling@asklepios.com", "website": "https://www.asklepios.com/bad-oldesloe", "comment": null, "lat": "53.81266", "lon": "10.36377"}, {"name": "Asklepios Klinik Barmbek", "type": "hospital", "street": "R\u00fcbenkamp 220", "city": "Hamburg", "postcode": "22291", "phone": "040 / 181882 - 6400", "email": "s.haar@asklepios.com", "website": "Link zum Krankenhaus", "comment": null, "lat": "53.60726", "lon": "10.03454"}, {"name": "Asklepios Klinik Birkenwerder", "type": "hospital", "street": "Hubertusstrasse 12- 22", "city": "Birkenwerder", "postcode": "16547", "phone": "03303 / 522400", "email": "g.lenz@asklepios.com", "website": "https://www.asklepios.com/birkenwerder/", "comment": null, "lat": "52.6916158", "lon": "13.2973388"}, {"name": "Asklepios Klinik Burglengenfeld", "type": "hospital", "street": "Dr.-Sauerbruch-Str. 1", "city": "Burglengenfeld", "postcode": "93133", "phone": "09471 / 705 - 111", "email": "f.rauschek@asklepios.com", "website": "http://www.asklepios.com/burglengenfeld", "comment": null, "lat": "49.2035", "lon": "12.03507"}, {"name": "Asklepios Kliniken Schildautal", "type": "hospital", "street": "Karl-Herold-Stra\u00dfe 1", "city": "Seesen", "postcode": "38723", "phone": "05381 / 741383", "email": "s.haar@asklepios.com", "website": "https://www.asklepios.com/seesen/", "comment": null, "lat": "51.8832", "lon": "10.2169"}, {"name": "Asklepios Klinik Langen", "type": "hospital", "street": "R\u00f6ntgenstrasse 20", "city": "Langen", "postcode": "63225", "phone": "06103 / 912 - 1201", "email": "geschaeftsfuehrung.langen@asklepios.com", "website": "https://www.asklepios.com/langen/", "comment": null, "lat": "49.9991966", "lon": "8.6839882"}, {"name": "Asklepios Klinik Lich GmbH", "type": "hospital", "street": "Goethestra\u00dfe 4", "city": "Lich", "postcode": "35423", "phone": "06404 / 81 - 551", "email": "geschaeftsfuehrung.lich@asklepios.com", "website": "http://www.asklepios.com/lich", "comment": null, "lat": "50.52505", "lon": "8.80614"}, {"name": "Asklepios Klinik Lindau", "type": "hospital", "street": "Friedrichshafener Stra\u00dfe 82", "city": "Lindau", "postcode": "88131", "phone": "08382 / 276 - 1210", "email": "s.steinacher@asklepios.com", "website": "https://www.asklepios.com/lindau/", "comment": null, "lat": "47.56382", "lon": "9.68395"}, {"name": "Asklepios Klinik Nord - Heidberg", "type": "hospital", "street": "Tangstedter Landstra\u00dfe 400", "city": "Hamburg", "postcode": "22417", "phone": "040 / 181887 - 3202", "email": "u.knopp@asklepios.com", "website": "https://www.asklepios.com/nord", "comment": null, "lat": "53.6717319", "lon": "10.0320584"}, {"name": "Asklepios Klinik Nord - Ochsenzoll", "type": "hospital", "street": "Langenhorner Chaussee 560", "city": "Hamburg", "postcode": "22419", "phone": "040 / 181887 - 3202", "email": "u.knopp@asklepios.com", "website": "https://www.asklepios.com/hamburg/nord/psychiatrie-ochsenzoll", "comment": null, "lat": "53.6736928", "lon": "10.0034809"}, {"name": "Asklepios Klinik Nord - TK Alsteror", "type": "hospital", "street": "Hohen Bleichen 22", "city": "Hamburg", "postcode": "20354", "phone": "040 / 181887 - 3202", "email": "u.knopp@asklepios.com", "website": "https://www.asklepios.com/nord", "comment": null, "lat": "53.5538914", "lon": "9.9874714"}, {"name": "Asklepios Klinik Nord - TK Horn", "type": "hospital", "street": "Horner Landstrasse 302-304", "city": "Hamburg", "postcode": "22043", "phone": "040 / 181887 - 3202", "email": "u.knopp@asklepios.com", "website": "https://www.asklepios.com/nord", "comment": null, "lat": "53.54713", "lon": "10.085"}, {"name": "Asklepios Klinik Nord - TK Steilshoop", "type": "hospital", "street": "Steilshooper Stra\u00dfe 293", "city": "Hamburg", "postcode": "22309", "phone": "040 / 181887 - 3202", "email": "u.knopp@asklepios.com", "website": "https://www.asklepios.com/nord", "comment": null, "lat": "53.6055854", "lon": "10.0539262"}, {"name": "Asklepios Klinik Nord - TK Volksd.", "type": "hospital", "street": "Kattjahren 24", "city": "Hamburg", "postcode": "22359", "phone": "040 / 181887 - 3202", "email": "u.knopp@asklepios.com", "website": "https://www.asklepios.com/nord", "comment": null, "lat": "53.6524752", "lon": "10.1617406"}, {"name": "Asklepios Klinik Nord - Wandsbek", "type": "hospital", "street": "J\u00fcthornstra\u00dfe 71", "city": "Hamburg", "postcode": "22043", "phone": "040 / 181887 - 3202", "email": "u.knopp@asklepios.com", "website": "https://www.asklepios.com/nord", "comment": null, "lat": "53.5691179", "lon": "10.0865935"}, {"name": "Asklepios Klinik Oberviechtach", "type": "hospital", "street": "Teunzer Str. 15", "city": "Oberviechtach", "postcode": "92526", "phone": "09671 / 930 - 100", "email": "k.hofstetter@asklepios.com", "website": "http://www.asklepios.com/oberviechtach", "comment": null, "lat": "49.46135", "lon": "12.41275"}, {"name": "Asklepios Klinik Pasewalk", "type": "hospital", "street": "Prenzlauer Chaussee 30", "city": "Pasewalk", "postcode": "17309", "phone": "03973 / 23 - 1103", "email": "l.merker@asklepios.com", "website": "http://asklepios.com/pasewalk", "comment": null, "lat": "53.4899045", "lon": "13.9853725"}, {"name": "Asklepios Klinik Sankt Augustin GmbH", "type": "hospital", "street": "Arnold-Janssen-Stra\u00dfe 29", "city": "Sankt Augustin", "postcode": "53757", "phone": "02241 / 249 - 400", "email": "u.jansen@asklepios.com", "website": "https://www.asklepios.com/sankt-augustin/", "comment": null, "lat": "50.77522", "lon": "7.18153"}, {"name": "Asklepios Klinik Seligenstadt", "type": "hospital", "street": "Dudenh\u00f6fer Stra\u00dfe 9", "city": "Seligenstadt", "postcode": "63500", "phone": "06182 / 83 - 8201", "email": "m.may@asklepios.com", "website": null, "comment": null, "lat": "50.04147", "lon": "8.96574"}, {"name": "Asklepios Klinik St. Georg", "type": "hospital", "street": "Lohm\u00fchlenstr. 5", "city": "Hamburg", "postcode": "20099", "phone": "040 / 181885 - 2101", "email": "t.rupp@asklepios.com", "website": null, "comment": null, "lat": "53.5584063", "lon": "10.0183421"}, {"name": "Asklepios Klinikum Bad Abbach GmbH", "type": "hospital", "street": "Kaiser - Karl V. - Allee 3", "city": "Bad Abbach", "postcode": "93077", "phone": "09405 / 18 - 2213", "email": "f.hafner@asklepios.com", "website": "http://www.asklepios.com", "comment": null, "lat": "48.93306", "lon": "12.03794"}, {"name": "Asklepios Klinikum Harburg", "type": "hospital", "street": "Ei\u00dfendorfer Pferdeweg 52", "city": "Hamburg", "postcode": "21075", "phone": "040 / 181886 - 3161", "email": "p.noack@asklepios.com", "website": "https://www.asklepios.de/hamburg/harburg/", "comment": null, "lat": "53.46111", "lon": "9.95013"}, {"name": "Asklepios Klinikum Harburg - Neugraben", "type": "hospital", "street": "L\u00fctt Enn 4", "city": "Hamburg", "postcode": "21149", "phone": "040 / 181886 - 3161", "email": "p.noack@asklepios.com", "website": "https://www.asklepios.de/hamburg/harburg/", "comment": null, "lat": "53.47145", "lon": "9.85352"}, {"name": "Asklepios Klinikum Harburg - Osdorf", "type": "hospital", "street": "Kroonhorst 11", "city": "Hamburg", "postcode": "22549", "phone": "040 / 181886 - 3161", "email": "p.noack@asklepios.com", "website": "https://www.asklepios.com/hamburg/harburg/experten/kinder-und-jugendpsychiatrie/tagesklinik-osdorf/", "comment": null, "lat": "53.5882456", "lon": "9.8489628"}, {"name": "Asklepios Klinikum Harburg - Wilhelmsburg", "type": "hospital", "street": "Neuh\u00f6fer Stra\u00dfe 23", "city": "Hamburg", "postcode": "21107", "phone": "040 / 181886 - 3161", "email": "p.noack@asklepios.com", "website": "https://www.asklepios.com/harburg/", "comment": null, "lat": "53.5103733", "lon": "9.9855777"}, {"name": "Asklepios Klinikum Uckermark GmbH", "type": "hospital", "street": "Auguststra\u00dfe 23", "city": "Schwedt", "postcode": "16303", "phone": "03332 / 53 - 3100", "email": "u.gnauck@asklepios.com", "website": null, "comment": null, "lat": "53.05319", "lon": "14.27641"}, {"name": "Asklepios Klinik Wandsbek", "type": "hospital", "street": "Alphonsstra\u00dfe 14", "city": "Hamburg", "postcode": "22043", "phone": "040 / 181883 - 2202", "email": "c.schlaeger@asklepios.com", "website": "Link zum Krankenhaus", "comment": null, "lat": "53.5704321", "lon": "10.0904463"}, {"name": "Asklepios Klinik Wei\u00dfenfels", "type": "hospital", "street": "Naumburger Stra\u00dfe 76", "city": "Wei\u00dfenfels", "postcode": "06667", "phone": "03443 / 401500", "email": "jana.uhlig@asklepios.com", "website": "https://www.asklepios.com/weissenfels/", "comment": null, "lat": "51.1954129", "lon": "11.9571324"}, {"name": "Asklepios Neurologische Klinik Bad Salzhausen", "type": "hospital", "street": "Am Hasensprung 6", "city": "Nidda / Bad Salzhausen", "postcode": "63667", "phone": "06043 / 804 - 200", "email": "m.bergmann@asklepios.com", "website": "http://www.asklepios.com/bad-salzhausen/", "comment": null, "lat": "50.41953", "lon": "8.98861"}, {"name": "Asklepios Neurologische Klinik Falkenstein", "type": "hospital", "street": "Asklepiosweg 15", "city": "K\u00f6nigstein - Falkenstein", "postcode": "61462", "phone": "06174 / 9064 - 60", "email": "ste.bauer@asklepios.com", "website": "https://www.asklepios.com/falkenstein/", "comment": null, "lat": "50.1903333", "lon": "8.4838028"}, {"name": "Asklepios Nordseeklinik Westerland/Sylt", "type": "hospital", "street": "Norderstr. 81", "city": "Sylt/OT Westerland", "postcode": "25980", "phone": "04651 / 841011", "email": "u.wenning@asklepios.com", "website": "https://www.asklepios.de/sylt/akut/", "comment": null, "lat": "54.9256837", "lon": "8.3143422"}, {"name": "Asklepios Orthop\u00e4dische Klinik Hohwald", "type": "hospital", "street": "Hohwaldstra\u00dfe 40", "city": "Neustadt", "postcode": "01844", "phone": "03596 / 567 - 200", "email": "p.hilbrenner@asklepios.com", "website": "Link zum Krankenhaus", "comment": null, "lat": "51.04584", "lon": "14.29003"}, {"name": "Asklepios Orthop\u00e4dische Klinik Lindenlohe", "type": "hospital", "street": "Lindenlohe 18", "city": "Schwandorf", "postcode": "92421", "phone": "09431 / 888 - 652", "email": "m.aach@asklepios.com", "website": "http://www.asklepios.com/lindenlohe", "comment": null, "lat": "49.35897", "lon": "12.15777"}, {"name": "Asklepios Paulinen Klinik Wiesbaden", "type": "hospital", "street": "Geisenheimer Stra\u00dfe 10", "city": "Wiesbaden", "postcode": "65197", "phone": "0611 / 847 - 2002", "email": "n.westphal@asklepios.com", "website": null, "comment": null, "lat": "50.0722718", "lon": "8.226172"}, {"name": "Asklepios Paulinen Klinik Wiesbaden TK Biebrich", "type": "hospital", "street": "Rathausstra\u00dfe 62-64", "city": "Wiesbaden", "postcode": "65203", "phone": "0611 / 847 - 2002", "email": "n.westphal@asklepios.com", "website": "Link zum Krankenhaus", "comment": null, "lat": "50.04212", "lon": "8.23931"}, {"name": "Asklepios Paulinen Klinik Wiesbaden TK R\u00fcdesheim", "type": "hospital", "street": "Eibinger Stra\u00dfe 9", "city": "R\u00fcdesheim", "postcode": "65385", "phone": "0611 / 847 - 2002", "email": "n.westphal@asklepios.com", "website": "Link zum Krankenhaus", "comment": null, "lat": "49.98361", "lon": "7.92492"}, {"name": "Asklepios Schlossberg Klinik", "type": "hospital", "street": "Frankfurter Stra\u00dfe 33", "city": "Bad K\u00f6nig", "postcode": "64732", "phone": "06063 / 501200", "email": "u.schultz@asklepios.com", "website": "Link zum Krankenhaus", "comment": null, "lat": "49.74495", "lon": "9.00434"}, {"name": "Asklepios Schwalm-Eder-Kliniken GmbH, Klinikum Melsungen", "type": "hospital", "street": "Kasseler Stra\u00dfe 80", "city": "Melsungen", "postcode": "34212", "phone": "06691 / 799 - 201", "email": "d.federwisch@asklepios.com", "website": "Link zum Krankenhaus", "comment": null, "lat": "51.13714", "lon": "9.538490000000001"}, {"name": "Asklepios Schwalm-Eder-Kliniken GmbH, Klinikum Schwalmstadt", "type": "hospital", "street": "Krankenhausstra\u00dfe 27", "city": "Schwalmstadt", "postcode": "34316", "phone": "06691 / 799 - 201", "email": "d.federwisch@asklepios.com", "website": "Link zum Krankenhaus", "comment": null, "lat": "50.92182", "lon": "9.25634"}, {"name": "Asklepios Stadtklinik Bad T\u00f6lz", "type": "hospital", "street": "Sch\u00fctzenstra\u00dfe 15", "city": "Bad T\u00f6lz", "postcode": "83646", "phone": "08041 / 507 - 1004", "email": "j.bachmeyer@asklepios.com", "website": "http://www.asklepios.com/bad-toelz/", "comment": null, "lat": "47.7567795", "lon": "11.5514463"}, {"name": "Asklepios Stadtklinik Bad Wildungen", "type": "hospital", "street": "Brunnenallee 19", "city": "Bad Wildungen", "postcode": "34537", "phone": "05621 / 704 - 4105", "email": "m.reggentin@asklepios.com", "website": "Link zum Krankenhaus", "comment": null, "lat": "51.11733", "lon": "9.11486"}, {"name": "Asklepios S\u00fcdpfalzklinik Germersheim", "type": "hospital", "street": "An Fronte Karl 2", "city": "Germersheim", "postcode": "76726", "phone": "07275 / 711398", "email": "f.lambert@asklepios.com", "website": "Link zum Krankenhaus", "comment": null, "lat": "49.22025", "lon": "8.36576"}, {"name": "Asklepios S\u00fcdpfalzklinik Kandel", "type": "hospital", "street": "Luitpoldstrasse 14", "city": "Kandel", "postcode": "76870", "phone": "07275 / 711398", "email": "f.lambert@asklepios.com", "website": "Link zum Krankenhaus", "comment": null, "lat": "49.0851", "lon": "8.2016"}, {"name": "Asklepios Westklinikum Hamburg GmbH", "type": "hospital", "street": "Suurheid 20", "city": "Hamburg", "postcode": "22559", "phone": "040 / 8191 - 2000", "email": "t.hoffmann@asklepios.com", "website": "https://www.asklepios.de/hamburg/westklinikum/", "comment": null, "lat": "53.58306", "lon": "9.77375"}, {"name": "ATOS Klinik Fleetinsel GmbH & Co. KG", "type": "hospital", "street": "Admiralt\u00e4tstr. 3-4", "city": "Hamburg", "postcode": "20459", "phone": "089 / 204000 - 0", "email": "martin.vonhummel@atos.de", "website": "http://www.atos.de", "comment": null, "lat": "53.5489214", "lon": "9.9854358"}, {"name": "ATOS Orthop\u00e4dische Klinik Braunfels", "type": "hospital", "street": "Hasselbornring 5", "city": "Braunfels", "postcode": "35619", "phone": "06442 / 939 - 179", "email": "thomas.schulz@atos.de", "website": "https://www.atos.de", "comment": null, "lat": "50.52608", "lon": "8.38235"}, {"name": "ATOS Starmed Klinik GmbH", "type": "hospital", "street": "Putzbrunner Str. 9", "city": "M\u00fcnchen", "postcode": "81737", "phone": "089 / 450285 - 130", "email": "qm@starmedklinik.de", "website": "http://www.starmedklinik.de", "comment": null, "lat": "48.09973", "lon": "11.63311"}, {"name": "Augenklinik Berlin-Marzahn GmbH", "type": "hospital", "street": "Brebacher Weg 15", "city": "Berlin", "postcode": "12683", "phone": "030 / 56840 - 0", "email": "s.kotowski@augenklinik-berlin.de", "website": null, "comment": null, "lat": "52.5139517", "lon": "13.5651706"}, {"name": "Augenklinik Dardenne SE", "type": "hospital", "street": "Friedrich-Ebert-Str. 23-25", "city": "Bonn", "postcode": "53177", "phone": "0228 / 8303 - 115", "email": "haupt@dardenne.de", "website": "https://www.augenklinik-dardenne.de/", "comment": null, "lat": "50.6805977", "lon": "7.1585853"}, {"name": "Augenklinik Dr. Georg", "type": "hospital", "street": "Am Kurpark 13-15", "city": "Bad Rothenfelde", "postcode": "49214", "phone": "05424 / 6440", "email": "h.jedras@augenklinik-bad-rothenfelde.de", "website": "http://augenklinik-bad-rothenfelde.de", "comment": null, "lat": "52.1103097", "lon": "8.1588201"}, {"name": "Augenklinik Dr. Hoffmann", "type": "hospital", "street": "Wolfenb\u00fctteler Str. 82", "city": "Braunschweig", "postcode": "38102", "phone": "0531 / 273380", "email": "verwaltung@augenklinik-dr-hoffmann.de", "website": "http://www.augenklinik-dr-hoffmann.de/", "comment": null, "lat": "52.2555789", "lon": "10.5275976"}, {"name": "Augenklinik Herzog Carl Theodor", "type": "hospital", "street": "Nymphenburger Str. 43", "city": "M\u00fcnchen", "postcode": "80335", "phone": "089 / 126005 - 0", "email": "info@augenklinik-muenchen.de", "website": "http://www.augenklinik-muenchen.de", "comment": null, "lat": "48.14851", "lon": "11.55064"}, {"name": "Augenklinik im Ring-Center GmbH", "type": "hospital", "street": "Frankfurter Allee 111", "city": "Berlin", "postcode": "10247", "phone": "030 / 4226209 - 0", "email": "info@augenklinik-ringcenter.de", "website": "http://www.augenklinik-ringcenter.de", "comment": null, "lat": "52.5143139", "lon": "13.4741566"}, {"name": "Augenklinik Rendsburg GmbH", "type": "hospital", "street": "Jungfernstieg 25", "city": "Rendsburg", "postcode": "24768", "phone": "04331 / 5902 - 214", "email": "office@augenklinik-rd.de", "website": "http://www.augenklinik-rd.de", "comment": null, "lat": "54.3006774", "lon": "9.6658044"}, {"name": "Augenklinik Schweinfurt-Gerolzhofen", "type": "hospital", "street": "Dingolsh\u00e4user Strasse 5", "city": "Gerolzhofen", "postcode": "97447", "phone": "0911 / 37665517", "email": "s.stauch-eckmann@osg.de", "website": "https://www.augenklinik-schweinfurt-gerolzhofen.de", "comment": null, "lat": "49.90041", "lon": "10.35453"}, {"name": "Augenklinik Stadthagen", "type": "hospital", "street": "Brunnenstr. 12", "city": "Stadthagen", "postcode": "31655", "phone": "05721 / 78080", "email": "verwaltung@augenklinik.org", "website": "http://www.augenklinik.org", "comment": null, "lat": "52.31769", "lon": "9.20642"}, {"name": "Augustahospital Anholt", "type": "hospital", "street": "Augustastra\u00dfe 8", "city": "Isselburg", "postcode": "46419", "phone": "0251 / 91937 - 6320", "email": "h.hagmann@alexianer.de", "website": "https://www.augustahospital.de/", "comment": null, "lat": "51.84875", "lon": "6.43237"}, {"name": "Augusta-Kranken-Anstalt Bochum gGmbH", "type": "hospital", "street": "Dr.-C.-Otto-Str. 27", "city": "Bochum-Linden", "postcode": "44879", "phone": "0234 / 517 - 1201", "email": "gf@augusta-bochum.de", "website": "http://www.augusta-bochum.de/", "comment": null, "lat": "51.4239461", "lon": "7.1581328"}, {"name": "Augusta-Kranken-Anstalt gGmbH Bochum", "type": "hospital", "street": "Bergstra\u00dfe 26", "city": "Bochum", "postcode": "44791", "phone": "0234 / 517 - 1201", "email": "gf@augusta-bochum.de", "website": "http://www.augusta-bochum.de/", "comment": null, "lat": "51.4853767", "lon": "7.2210537"}, {"name": "Augusta-Krankenhaus", "type": "hospital", "street": "Amalienstr. 9", "city": "D\u00fcsseldorf", "postcode": "40472", "phone": "0211 / 9043 - 601", "email": "braun@vkkd-kliniken.de", "website": "http://www.augusta-duesseldorf.de", "comment": null, "lat": "51.26646", "lon": "6.82469"}, {"name": "AUGUST-BIER-KLINIK - Neurologie und Rehabilitation", "type": "hospital", "street": "Diekseepromendade 7-11", "city": "Bad Malente-Gremsm\u00fchlen", "postcode": "23714", "phone": "04523 / 405 - 0", "email": "neysters@august-bier-klinik.de", "website": "http://www.august-bier-klinik.de", "comment": null, "lat": "54.16482", "lon": "10.54767"}, {"name": "AWO Fachkrankenhaus Jerichow", "type": "hospital", "street": "Johannes-Lange-Stra\u00dfe 20", "city": "Jerichow", "postcode": "39319", "phone": "039343 / 924015", "email": "thomas.wendler@awo-khbg.de", "website": "http://www.awo-sachsenanhalt.de", "comment": null, "lat": "52.5009", "lon": "12.03555"}, {"name": "AWO Krankenhaus Calbe", "type": "hospital", "street": "Hospitalstr. 5", "city": "Calbe/Saale", "postcode": "39240", "phone": "039291 / 47 - 106", "email": "gabriele.lang@awo-sachsenanhalt.de", "website": "http://www.awo-sachsenanhalt.de", "comment": null, "lat": "51.9043", "lon": "11.76896"}, {"name": "AWO Psychiatriezentrum", "type": "hospital", "street": "Vor dem Kaiserdom 10", "city": "K\u00f6nigslutter am Elm", "postcode": "38154", "phone": "05353 / 90 - 1100", "email": "thomas.zauritz@awo-apz.de", "website": "http://www.awo-psychiatriezentrum.de", "comment": null, "lat": "52.2461", "lon": "10.8111"}, {"name": "AWO Psychiatriezentrum Halle GmbH", "type": "hospital", "street": "Zscherbener Str. 11", "city": "Halle (Saale)", "postcode": "06124", "phone": "0345 / 6922 - 120", "email": "birgit.stracke-ernst@awo-sachsenanhalt.de", "website": "https://www.awo-sachsenanhalt.de/angebote/patienten-und-gesundheit/einrichtungen/awo-psychiatriezentrum-halle.html", "comment": null, "lat": "51.47341", "lon": "11.91756"}, {"name": "Barmherzige Br\u00fcder Krankenhaus M\u00fcnchen", "type": "hospital", "street": "Romanstra\u00dfe 93", "city": "M\u00fcnchen", "postcode": "80639", "phone": "089 / 17971501", "email": "gf@barmherzige-muenchen.de", "website": "http://www.barmherzige-muenchen.de", "comment": null, "lat": "48.15585", "lon": "11.50919"}, {"name": "Barmherzige Br\u00fcder Paul Gerhardt Haus Regensburg", "type": "hospital", "street": "Pr\u00fcfeninger Str. 86", "city": "Regensburg", "postcode": "93049", "phone": "0941 / 369 - 1168", "email": "antje.schoppa@barmherzige-regensburg.de", "website": "https://www.paulgerhardthaus.de/", "comment": null, "lat": "49.016971433387624", "lon": "12.066169998186371"}, {"name": "Barmherzige Br\u00fcder Saffig, Fachklinik f\u00fcr Psychiatrie und Psychotherapie", "type": "hospital", "street": "P\u00f6schstrasse 18", "city": "Saffig", "postcode": "56648", "phone": "02625 / 31 - 109", "email": "h.brandt@bb-saffig.de", "website": "http://www.bb-saffig.de", "comment": null, "lat": "50.37784", "lon": "7.41951"}, {"name": "BDH-Klinik Braunfels gGmbH", "type": "hospital", "street": "Hubertusstra\u00dfe 3-7", "city": "Braunfels", "postcode": "35619", "phone": "06442 / 936 - 101", "email": "dmd@bdh-klinik-braunfels.de", "website": "http://www.bdh-klinik-braunfels.de", "comment": null, "lat": "50.5146759", "lon": "8.3936425"}, {"name": "BDH-Klinik Elzach gGmbH", "type": "hospital", "street": "Am Tannwald 1", "city": "Elzach", "postcode": "79215", "phone": "07682 / 801 - 1221", "email": "stefan.richter@bdh-klinik-elzach.de", "website": "http://www.bdh-klinik-elzach.de/", "comment": null, "lat": "48.17453", "lon": "8.08001"}, {"name": "BDH-Klinik Greifswald gGmbH", "type": "hospital", "street": "Karl-Liebknecht-Ring 26a", "city": "Greifswald", "postcode": "17491", "phone": "03834 / 871 - 101", "email": "sekretariatgf@bdh-klinik-greifswald.de", "website": "http://www.bdh-klinik-greifswald.de", "comment": null, "lat": "54.0896043", "lon": "13.4100659"}, {"name": "BDH-Klinik Hessisch Oldendorf gGmbH", "type": "hospital", "street": "Greitstra\u00dfe 18-28", "city": "Hessisch Oldendorf", "postcode": "31840", "phone": "05152 / 781 - 139", "email": "verwaltung@bdh-klinik-hessisch-oldendorf.de", "website": "http://www.bdh-klinik-hessisch-oldendorf.de", "comment": null, "lat": "52.17372", "lon": "9.24839"}, {"name": "BDH-Klinik Vallendar gGmbH", "type": "hospital", "street": "Heerstra\u00dfe 54a", "city": "Vallendar", "postcode": "56179", "phone": "0261 / 6405 - 104", "email": "thomas.kessel@bdh-klinik-vallendar.de", "website": "http://www.bdh-klinik-vallendar.de", "comment": null, "lat": "50.4002796", "lon": "7.6123136"}, {"name": "BDH-Klinik Waldkirch", "type": "hospital", "street": "Heitere Weg 10", "city": "Waldkirch", "postcode": "79183", "phone": "07681 / 208 - 5830", "email": "martin.mueller@bdh-klinik-waldkirch.de", "website": "https://www.bdh-klinik-waldkirch.de", "comment": null, "lat": "48.09813", "lon": "7.95256"}, {"name": "Behandlungszentrum Kempfenhausen f\u00fcr Multiple Sklerose Kranke gemeinn\u00fctzige GmbH", "type": "hospital", "street": "Milchberg 21", "city": "Berg-Kempfenhausen", "postcode": "82335", "phone": "08151 / 261 - 920", "email": "ingo.kleiter@ms-klinik.de", "website": "http://www.ms-klinik.de", "comment": null, "lat": "47.98813", "lon": "11.36451"}, {"name": "Benedictus Krankenhaus Feldafing GmbH &amp; Co. KG", "type": "hospital", "street": "Thomas-Mann-Stra\u00dfe 6", "city": "Feldafing", "postcode": "82340", "phone": "08157 / 28 - 0", "email": "info@klinik-feldafing.de", "website": "https://www.klinik-feldafing.de", "comment": null, "lat": "47.936492", "lon": "11.2959355"}, {"name": "Benedictus Krankenhaus Tutzing GmbH &amp; Co. KG", "type": "hospital", "street": "Bahnhofstra\u00dfe 5", "city": "Tutzing", "postcode": "82327", "phone": "08158 / 23 - 130", "email": "simon.machnik@artemed.de", "website": "http://www.krankenhaus-tutzing.de", "comment": null, "lat": "47.907055", "lon": "11.2768676"}, {"name": "Bergarbeiter-Krankenhaus Schneeberg gGmbH", "type": "hospital", "street": "Goethestr. 3", "city": "Schneeberg", "postcode": "08289", "phone": "03772 / 63 - 100", "email": "r.krebiehl@skc.de", "website": "http://bak-schneeberg.de", "comment": null, "lat": "50.60315", "lon": "12.64252"}, {"name": "Berglandklinik L\u00fcdenscheid GmbH & Co. KG", "type": "hospital", "street": "Am Hundebrink 6", "city": "L\u00fcdenscheid", "postcode": "58511", "phone": "02351 / 438 - 0", "email": "info@berglandklinik-luedenscheid.de", "website": "http://www.berglandklinik-luedenscheid.de", "comment": null, "lat": "51.2073406", "lon": "7.6373874"}, {"name": "Bergmannsheil und Kinderklinik Buer GmbH", "type": "hospital", "street": "Schernerweg 4", "city": "Gelsenkirchen", "postcode": "45894", "phone": "0209 / 5902 - 451", "email": "verwaltung@bergmannsheil-buer.de", "website": "http://www.bergmannsheil-buer.de", "comment": null, "lat": "51.57136", "lon": "7.06059"}, {"name": "Bertha Krankenhaus", "type": "hospital", "street": "Maiblumen Str. 5", "city": "Duisburg", "postcode": "47229", "phone": "0203 / 733 - 1001", "email": "julia.disselborg@sana.de", "website": "https://www.sana-duisburg.de/home.html", "comment": null, "lat": "51.3967", "lon": "6.69939"}, {"name": "Berufsgenossenschaftliches Universit\u00e4tsklinikum Bergmannsheil gGmbH", "type": "hospital", "street": "B\u00fcrkle-de-la-Camp-Platz 1", "city": "Bochum", "postcode": "44789", "phone": "0234 / 302 - 6101", "email": "sekretariat-gf@bergmannsheil.de", "website": "http://www.bergmannsheil.de", "comment": null, "lat": "51.46835", "lon": "7.21115"}, {"name": "Berufsgenossenschaftliche Unfallklinik gGmbH", "type": "hospital", "street": "Friedberger Landstra\u00dfe 430", "city": "Frankfurt am Main", "postcode": "60389", "phone": "069 / 475 - 2201", "email": "gf@bgu-frankfurt.de", "website": "http://www.bgu-frankfurt.de", "comment": null, "lat": "50.145405", "lon": "8.709369"}, {"name": "Bethesda - Allgemeines Krankenhaus gGmbH, Bergedor", "type": "hospital", "street": "Glindersweg 80", "city": "Hamburg", "postcode": "21029", "phone": "040 / 72554 - 1000", "email": "vonborstel@bkb.info", "website": "http://www.klinik-bergedorf.de", "comment": null, "lat": "53.48581", "lon": "10.23665"}, {"name": "BETHESDA Krankenhaus", "type": "hospital", "street": "Heerstra\u00dfe 219", "city": "Duisburg", "postcode": "47053", "phone": "0203 / 508 - 1500", "email": "mgf@evkln.de", "website": "http://www.bethesda.de", "comment": null, "lat": "51.416814", "lon": "6.7602949"}, {"name": "Bethlehem Gesundheitszentrum Stolberg", "type": "hospital", "street": "Steinfeldstra\u00dfe 5", "city": "Stolberg (Rheinl.)", "postcode": "52222", "phone": "02402 / 107 - 4201", "email": "dirk.offermann@bethlehem.de", "website": "http://www.bethlehem.de", "comment": null, "lat": "50.77275", "lon": "6.22933"}, {"name": "Betriebsteil Bardenberg", "type": "hospital", "street": "Dr. Hans B\u00f6ckler Platz 1", "city": "W\u00fcrselen", "postcode": "52146", "phone": "02405 / 62 - 1602", "email": "andreas.schlueter@rheinmaasklinikum.de", "website": "http://www.rheinmaasklinikum.de", "comment": null, "lat": "50.84371", "lon": "6.11207"}, {"name": "Betriebsteil Marienh\u00f6he", "type": "hospital", "street": "Mauerfeldchen 25", "city": "W\u00fcrselen", "postcode": "52146", "phone": "02405 / 801 - 1602", "email": "andreas.schlueter@rheinmaasklinikum.de", "website": "http://www.rheinmaasklinikum.de", "comment": null, "lat": "50.81528", "lon": "6.1425338"}, {"name": "Bezirkskliniken Schwaben, Bezirkskrankenhaus Donauw\u00f6rth", "type": "hospital", "street": "Neudegger Allee 6", "city": "Donauw\u00f6rth", "postcode": "86609", "phone": "0906 / 782 - 2205", "email": "karel.frasch@bkh-donauwoerth.de", "website": "https://bkh-donauwoerth.de", "comment": null, "lat": "48.72410683338762", "lon": "10.75613319818637"}, {"name": "Bezirkskliniken Schwaben, Bezirkskrankenhaus G\u00fcnzburg", "type": "hospital", "street": "Ludwig-Heilmeyer-Stra\u00dfe 2", "city": "G\u00fcnzburg", "postcode": "89312", "phone": "08221 / 96 - 2002", "email": "thomas.becker@bkh-guenzburg.de", "website": "http://www.bkh-guenzburg.de", "comment": null, "lat": "48.45792", "lon": "10.29486"}, {"name": "Bezirksklinik Rehau", "type": "hospital", "street": "Fohrenreuther Str. 48", "city": "Rehau", "postcode": "95111", "phone": "0921 / 283 - 0", "email": "bayreuth@gebo-med.de", "website": "https://www.gebo-med.de", "comment": null, "lat": "50.2390499", "lon": "12.0372697"}, {"name": "Bezirksklinikum Ansbach", "type": "hospital", "street": "Feuchtwanger Stra\u00dfe 38", "city": "Ansbach", "postcode": "91522", "phone": "0981 / 4653 - 2000", "email": "markus.calana@bezirkskliniken-mfr.de", "website": "http://www.bezirkskliniken-mfr.de/unsere-standorte/ansbach.html", "comment": null, "lat": "49.293337", "lon": "10.5552864"}, {"name": "Bezirksklinikum Mainkofen", "type": "hospital", "street": "Mainkofen A3", "city": "Deggendorf", "postcode": "94469", "phone": "09931 / 8720010", "email": "sekr.w.schreiber@mainkofen.de", "website": "http://www.mainkofen.de", "comment": null, "lat": "48.807595", "lon": "12.8974778"}, {"name": "Bezirksklinikum Obermain", "type": "hospital", "street": "Kutzenberg 19", "city": "Ebensfeld", "postcode": "96250", "phone": "0921 / 283 - 0", "email": "bayreuth@gebo-med.de", "website": "http://www.gebo-med.de", "comment": null, "lat": "50.04952", "lon": "10.97135"}, {"name": "Bezirksklinikum Obermain - Tagesklinik f\u00fcr Psychiatrie, Psychotherapie und Psychosomatik in Coburg", "type": "hospital", "street": "Gustav-Hirschfeld-Ring 9", "city": "Coburg", "postcode": "96450", "phone": "0921 / 283 - 0", "email": "bayreuth@gebo-med.de", "website": "http://www.gebo-med.de", "comment": null, "lat": "50.24965", "lon": "10.97462"}, {"name": "Bezirksklinikum Obermain - Tagesklinik f\u00fcr Psychiatrie, Psychotherapie und Psychosomatik in Kronach", "type": "hospital", "street": "Friesener Str. 49", "city": "Kronach", "postcode": "96317", "phone": "0921 / 283 - 0", "email": "bayreuth@gebo-med.de", "website": "http://www.gebo-med.de", "comment": null, "lat": "50.24457", "lon": "11.33389"}, {"name": "Bezirksklinikum Regensburg", "type": "hospital", "street": "Universit\u00e4tsstra\u00dfe 84", "city": "Regensburg", "postcode": "93053", "phone": "0941 / 941 - 0", "email": "thomas.baghai@medbo.de", "website": "http://www.medbo.de", "comment": null, "lat": "48.99914", "lon": "12.09077"}, {"name": "Bezirkskrankenhaus Augsburg, Klinik f\u00fcr Psychiatrie, Psychotherapie und Psychosomatik", "type": "hospital", "street": "Dr.-Mack-Str. 1", "city": "Augsburg", "postcode": "86156", "phone": "0821 / 4803 - 1001", "email": "max.schmauss@bkh-augsburg.de", "website": "http://www.bkh-augsburg.de", "comment": null, "lat": "48.38542", "lon": "10.83393"}, {"name": "Bezirkskrankenhaus Bayreuth", "type": "hospital", "street": "Nordring 2", "city": "Bayreuth", "postcode": "95445", "phone": "0921 / 283 - 0", "email": "bayreuth@gebo-med.de", "website": "https://www.gebo-med.de", "comment": null, "lat": "49.9551471", "lon": "11.5676794"}, {"name": "Bezirkskrankenhaus Bayreuth - Tagesklinik f\u00fcr Kinder- und Jugendpsychiatrie und -psychotherapie in Bamberg", "type": "hospital", "street": "Buger Str. 80", "city": "Bamberg", "postcode": "96049", "phone": "0921 / 283 - 0", "email": "bayreuth@gebo-med.de", "website": "https://www.gebo-med.de", "comment": null, "lat": "49.8671415344854", "lon": "10.892117628210189"}, {"name": "Bezirkskrankenhaus Bayreuth - Tagesklinik f\u00fcr Kinder- und Jugendpsychiatrie und -psychotherapie in Coburg", "type": "hospital", "street": "Hinterer Glockenberg 25c", "city": "Coburg", "postcode": "96450", "phone": "0921 / 283 - 0", "email": "bayreuth@gebo-med.de", "website": "https://www.gebo-med.de", "comment": null, "lat": "50.24903", "lon": "10.97181"}, {"name": "Bezirkskrankenhaus Bayreuth - Tagesklinik f\u00fcr Kinder- und Jugendpsychiatrie und -psychotherapie in Hof", "type": "hospital", "street": "Eppenreuther Str. 9a", "city": "Hof", "postcode": "95032", "phone": "0921 / 283 - 0", "email": "bayreuth@gebo-med.de", "website": "https://www.gebo-med.de", "comment": null, "lat": "50.30237143338763", "lon": "11.91664999818637"}, {"name": "Bezirkskrankenhaus Kaufbeuren", "type": "hospital", "street": "Kemnaterstr. 16", "city": "Kaufbeuren", "postcode": "87600", "phone": "08341 / 72 - 1103", "email": "albert.putzhammer@bkh-kaufbeuren.de", "website": "http://www.bezirkskrankenhaus-kaufbeuren.de", "comment": null, "lat": "47.88355", "lon": "10.61193"}, {"name": "Bezirkskrankenhaus Kempten", "type": "hospital", "street": "Robert-Weixler-Strasse 46", "city": "Kempten", "postcode": "87439", "phone": "0831 / 54026 - 2622", "email": "info@bkh-kempten.de", "website": "http://www.bkh-kempten.de/", "comment": null, "lat": "47.7316953", "lon": "10.3013058"}, {"name": "Bezirkskrankenhaus Landshut", "type": "hospital", "street": "Prof.-Buchner-Str. 22", "city": "Landshut", "postcode": "84034", "phone": "0871 / 6008 - 140", "email": "h.spiessl@bkh-landshut.de", "website": "http://www.bkh-landshut.de", "comment": null, "lat": "48.53667", "lon": "12.1336"}, {"name": "Bezirkskrankenhaus Memmingen Klinik f\u00fcr Psychiatrie, Psychotherapie und Psychosomatik am Klinikum Memmingen", "type": "hospital", "street": "Bismarckstr. 23", "city": "Memmingen", "postcode": "87700", "phone": "08331 / 72 - 2667", "email": "bernhard.schuster@bkh-memmingen.de", "website": "http://www.bezirkskrankenhaus-memmingen.de", "comment": null, "lat": "47.98289", "lon": "10.16736"}, {"name": "Bezirkskrankenhaus Parsberg", "type": "hospital", "street": "Robert-Koch-Stra\u00dfe 2", "city": "Parsberg", "postcode": "92331", "phone": "0941 / 941 - 0", "email": "thomas.baghai@medbo.de", "website": "http://www.medbo.de/kliniken-heime/forensik/parsberg-lungen-bronchialheilkunde.html", "comment": null, "lat": "49.1561798", "lon": "11.7206648"}, {"name": "Bezirkskrankenhaus Passau", "type": "hospital", "street": "W\u00f6rthstra\u00dfe 5", "city": "Passau", "postcode": "94032", "phone": "09931 / 8720010", "email": "sekr.w.schreiber@mainkofen.de", "website": "http://www.bkh-passau.de/", "comment": null, "lat": "48.5669986", "lon": "13.447187"}, {"name": "Bezirkskrankenhaus W\u00f6llershof", "type": "hospital", "street": "W\u00f6llershof 1", "city": "St\u00f6rnstein", "postcode": "92721", "phone": "0941 / 941 - 0", "email": "thomas.baghai@medbo.de", "website": "http://www.medbo.de/kliniken-heime/psychiatrie/woellershof.html", "comment": null, "lat": "49.7474582", "lon": "12.1834304"}, {"name": "BG Klinik Ludwigshafen", "type": "hospital", "street": "Ludwig-Guttmann-Stra\u00dfe 13", "city": "Ludwighafen", "postcode": "67071", "phone": "0621 / 6810 - 8001", "email": "fabian.ritter@bgkliniken-lu-tue.de", "website": "http://www.bgu-ludwigshafen.de/", "comment": null, "lat": "49.4861967", "lon": "8.3890513"}, {"name": "BG Klinik T\u00fcbingen", "type": "hospital", "street": "Schnarrenbergstr. 95", "city": "T\u00fcbingen", "postcode": "72076", "phone": "0621 / 6810 - 8001", "email": "fabian.ritter@bgukliniken-lu-tue.de", "website": "http://www.bgu-tuebingen.de", "comment": null, "lat": "48.53315", "lon": "9.03619"}, {"name": "BG Klinikum Bergmannstrost Halle", "type": "hospital", "street": "Merseburger Stra\u00dfe 165", "city": "Halle (Saale)", "postcode": "06112", "phone": "0345 / 132 - 7500", "email": "thomas.hagdorn@bergmannstrost.de", "website": "http://www.bergmannstrost.de", "comment": null, "lat": "51.4594604", "lon": "11.9840482"}, {"name": "BG-Klinikum Duisburg", "type": "hospital", "street": "Gro\u00dfenbaumer Allee 250", "city": "Duisburg", "postcode": "47249", "phone": "0203 / 7688 - 2101", "email": "geschaeftsfuehrung@bgu-duisburg.de", "website": "http://www.bg-klinikum-duisburg.de", "comment": null, "lat": "51.3809692", "lon": "6.7853839"}, {"name": "BG Klinikum Hamburg gGmbH", "type": "hospital", "street": "Bergedorfer Stra\u00dfe 10", "city": "Hamburg", "postcode": "21033", "phone": "040 / 7306 - 0", "email": "mail@bgk-hamburg.de", "website": "http://www.bg-klinikum-hamburg.de", "comment": null, "lat": "53.50707", "lon": "10.17389"}, {"name": "BG Klinikum Murnau gGmbH", "type": "hospital", "street": "Prof.-K\u00fcntscher-Stra\u00dfe 8", "city": "Murnau", "postcode": "82418", "phone": "08841 / 48 - 2209", "email": "info@bgu-murnau.de", "website": "https://www.bgu-murnau.de/", "comment": null, "lat": "47.67209", "lon": "11.21523"}, {"name": "BG-Unfallklinik - Unfallkrankenhaus Berlin gGmbH", "type": "hospital", "street": "Warener Stra\u00dfe 7", "city": "Berlin", "postcode": "12683", "phone": "030 / 5681 - 3001", "email": "ekkernkamp@ukb.de", "website": "http://www.ukb.de", "comment": null, "lat": "52.5188768", "lon": "13.5650042"}, {"name": "BioMed-Klinik Betriebs-GmbH", "type": "hospital", "street": "Tischbergerstr. 5+8", "city": "Bad Bergzabern", "postcode": "76887", "phone": "06343 / 705 - 0", "email": "info@biomed-klinik.de", "website": "http://www.BioMed-Klinik.de", "comment": null, "lat": "49.0951015", "lon": "7.9892178"}, {"name": "Blaues Kreuz Diakoniewerk mGmbH - Fachklinik Curt-von-Knobelsdorff-Haus", "type": "hospital", "street": "Hermannstra\u00dfe 17", "city": "Radevormwald", "postcode": "42477", "phone": "02195 / 672 - 0", "email": "bernd.wessel@blaues-kreuz.de", "website": null, "comment": null, "lat": "51.2047897", "lon": "7.3480523"}, {"name": "BODDEN-KLINIKEN Ribnitz-Damgarten GmbH", "type": "hospital", "street": "Sandhufe 2", "city": "Ribnitz-Damgarten", "postcode": "18311", "phone": "03821 / 700 - 100", "email": "gf@bodden-kliniken.de", "website": "http://www.bodden-kliniken.de", "comment": null, "lat": "54.2366084", "lon": "12.4420856"}, {"name": "Bonifatius Hospital Lingen", "type": "hospital", "street": "Wilhelmstra\u00dfe 13", "city": "Lingen", "postcode": "49808", "phone": "0591 / 910 - 1203", "email": "helmut.zwake@hospital-lingen.de", "website": "http://www.bonifatius-hospital-lingen.de", "comment": null, "lat": "52.5252913", "lon": "7.3171353"}, {"name": "Borrom\u00e4us Hospital Leer gGmbH", "type": "hospital", "street": "Kirchstrasse 61 - 67", "city": "Leer", "postcode": "26789", "phone": "0491 / 85 - 80000", "email": "geschaeftsleitung@hospital-leer.de", "website": "http://hospital-leer.de", "comment": null, "lat": "53.2288", "lon": "7.44566"}, {"name": "Brandenburgklinik Bernau", "type": "hospital", "street": "Brandenburgallee 1", "city": "Bernau", "postcode": "16321", "phone": "033397 / 3 - 1930", "email": "kindsgrab@michelskliniken.de", "website": null, "comment": null, "lat": "52.7329074", "lon": "13.4914381"}, {"name": "BRK Tagesklinik S\u00fcd", "type": "hospital", "street": "Perchtingerstra\u00dfe 5", "city": "M\u00fcnchen", "postcode": "81379", "phone": "089 / 2373580", "email": "stephan.mirisch@brk-muenchen.de", "website": null, "comment": null, "lat": "48.0956597", "lon": "11.5114335"}, {"name": "Br\u00fcderhaus Koblenz", "type": "hospital", "street": "Kardinal-Krementz-Stra\u00dfe 1-5", "city": "Koblenz", "postcode": "56073", "phone": "0261 / 496 - 6600", "email": "j.korn-fourcade@kk-km.de", "website": "http://kk-km.de", "comment": null, "lat": "50.3538635", "lon": "7.5872419"}, {"name": "Br\u00fcderkrankenhaus Montabaur", "type": "hospital", "street": "Koblenzer Stra\u00dfe 11-13", "city": "Montabaur", "postcode": "56410", "phone": "0261 / 496 - 6600", "email": "j.korn-fourcade@kk-km.de", "website": "http://kk-km.de", "comment": null, "lat": "50.4314892", "lon": "7.8317218"}, {"name": "Br\u00fcderkrankenhaus St. Josef Paderborn", "type": "hospital", "street": "Husener Str. 46", "city": "Paderborn", "postcode": "33098", "phone": "05251 / 702 - 1012", "email": "s.roerig@bk-paderborn.de", "website": "http://www.bk-paderborn.de", "comment": null, "lat": "51.7109981", "lon": "8.7589109"}, {"name": "Buergerhospital Friedberg", "type": "hospital", "street": "Ockst\u00e4dter Str. 3-5", "city": "Friedberg", "postcode": "61169", "phone": "06032 / 702 - 1110", "email": "heidemarie.tuerk@gz-wetterau.de", "website": "http://www.gz-w.de", "comment": null, "lat": "50.3347228", "lon": "8.7513776"}, {"name": "Bundeswehrkrankenhaus Berlin", "type": "hospital", "street": "Scharnhorststra\u00dfe 13", "city": "Berlin", "postcode": "10115", "phone": "030 / 2841 - 1002", "email": "bwkrhsberlinkdr@bundeswehr.org", "website": "http://berlin.bwkrankenhaus.de", "comment": null, "lat": "52.533533", "lon": "13.3713404"}, {"name": "Bundeswehrkrankenhaus Hamburg", "type": "hospital", "street": "Lesserstra\u00dfe 180", "city": "Hamburg", "postcode": "22049", "phone": "040 / 6947 - 10010", "email": "bwkrhshamburgkommandeur@bundeswehr.org", "website": "http://www.bundeswehrkrankenhaus-hamburg.de", "comment": null, "lat": "53.5940269", "lon": "10.0747075"}, {"name": "Bundeswehrkrankenhaus Ulm", "type": "hospital", "street": "Oberer Eselsberg 40", "city": "Ulm", "postcode": "89081", "phone": "0731 / 1710 - 1001", "email": "bwkrhsulmkdr@bundeswehr.org", "website": "https://ulm.bwkrankenhaus.de", "comment": null, "lat": "48.42552", "lon": "9.94785"}, {"name": "Bundeswehrkrankenhaus Westerstede", "type": "hospital", "street": "Lange Stra\u00dfe 38", "city": "Westerstede", "postcode": "26655", "phone": "04488 / 50 - 7110", "email": "bwkrhswesterstedekdr@bundeswehr.org", "website": "http://westerstede.bwkrankenhaus.de/", "comment": null, "lat": "53.25683", "lon": "7.91629"}, {"name": "BundeswehrZentralkrankenhaus Koblenz", "type": "hospital", "street": "R\u00fcbenacher Stra\u00dfe 170", "city": "Koblenz", "postcode": "56072", "phone": "0261 / 281 - 2001", "email": "bwzkrhskoblenzkdr@bundeswehr.org", "website": "http://koblenz.bwkrankenhaus.de", "comment": null, "lat": "50.36808", "lon": "7.54389"}, {"name": "B\u00fcrgerhospital und Clementine Kinderhospital gGmbH", "type": "hospital", "street": "Theobald-Christ-Str. 16", "city": "Frankfurt am Main", "postcode": "60316", "phone": "069 / 1500 - 440", "email": "k.scholz@buergerhospital-ffm.de", "website": "http://www.clementine-kinderhospital.de", "comment": null, "lat": "50.11449", "lon": "8.69821"}, {"name": "B\u00fcrgerhospital und Clementine Kinderhospital gGmbH Standort: B\u00fcrgerhospital Frankfurt", "type": "hospital", "street": "Nibelungenallee 37-41", "city": "Frankfurt am Main", "postcode": "60318", "phone": "069 / 1500 - 440", "email": "k.scholz@buergerhospital-ffm.de", "website": "https://www.buergerhospital-ffm.de", "comment": null, "lat": "50.1307293", "lon": "8.6867725"}, {"name": "Burghof-Klinik", "type": "hospital", "street": "Ritterstra\u00dfe 19", "city": "Rinteln", "postcode": "31737", "phone": "05751 / 9400 - 940441", "email": "detlef.dietrich@burghof-klinik.de", "website": "http://www.burghof-klinik.de", "comment": null, "lat": "52.18424", "lon": "9.08163"}, {"name": "Burghof- Klinik Bad Nauheim GmbH", "type": "hospital", "street": "Burgallee 22", "city": "Bad Nauheim", "postcode": "61231", "phone": "06032 / 6032", "email": "h.reitz-lennemann@bhk.uno", "website": "http://www.burghof-klinik.com", "comment": null, "lat": "50.36754", "lon": "8.73452"}, {"name": "Capio Blausteinklinik", "type": "hospital", "street": "Erhard-Gr\u00f6zinger-Stra\u00dfe 102", "city": "Blaustein", "postcode": "89134", "phone": "0731 / 9535 - 33", "email": "ralf.peter@de.capio.com", "website": null, "comment": null, "lat": "48.41126", "lon": "9.94149"}, {"name": "Capio Deutsche Klinik Laufen GmbH", "type": "hospital", "street": "Abtsee 31", "city": "Laufen", "postcode": "83410", "phone": "08682 / 917 - 0", "email": "info.csa@de.capio.com", "website": "Link zum Krankenhaus", "comment": null, "lat": "47.9145", "lon": "12.90757"}, {"name": "Capio Elbe-Jeetzel-Klinik Dannenberg", "type": "hospital", "street": "Hermann-L\u00f6ns-Stra\u00dfe 2", "city": "Dannenberg", "postcode": "29451", "phone": "05861 / 83 - 1110", "email": "info.cejk@de.capio.com", "website": null, "comment": null, "lat": "53.0832493", "lon": "11.0808929"}, {"name": "Capio Franz von Pr\u00fcmmer Klinik", "type": "hospital", "street": "Bahnhofstra\u00dfe 16", "city": "Bad Br\u00fcckenau", "postcode": "97769", "phone": "09741 / 898 - 1000", "email": "sabine.hein@de.capio.com", "website": "http://www.capio-franz-von-pruemmer-klinik.de", "comment": null, "lat": "50.30788", "lon": "9.7855"}, {"name": "Capio Hofgartenklinik", "type": "hospital", "street": "Hofgartenstra\u00dfe 6", "city": "Aschaffenburg", "postcode": "63739", "phone": "06021 / 303 - 185", "email": "ingo.adamzik@de.capio.com", "website": null, "comment": null, "lat": "49.97529", "lon": "9.154941"}, {"name": "Capio Krankenhaus Land Hadeln", "type": "hospital", "street": "Gro\u00dfe Ortstra\u00dfe 85", "city": "Otterndorf", "postcode": "21762", "phone": "04751 / 908 - 100", "email": "diana.moeller@de.capio.com", "website": null, "comment": null, "lat": "53.8126035", "lon": "8.8897403"}, {"name": "Capio Mathilden-Hospital B\u00fcdingen", "type": "hospital", "street": "Am Schlag 9", "city": "B\u00fcdingen", "postcode": "63654", "phone": "06042 / 86 - 222", "email": "klaus.woehrle@de.capio.com", "website": null, "comment": null, "lat": "50.2873005", "lon": "9.1132174"}, {"name": "Capio Mosel-Eifel-Klinik", "type": "hospital", "street": "Kurf\u00fcrstenstra\u00dfe 40", "city": "Bad Bertrich", "postcode": "56864", "phone": "02674 / 940 - 318", "email": "petra.hager-haeusler@de.capio.com", "website": "http://www.venen.de", "comment": null, "lat": "50.07025", "lon": "7.0346"}, {"name": "Caritas-Klinik Dominikus", "type": "hospital", "street": "Kurhausstra\u00dfe 30", "city": "Berlin", "postcode": "13467", "phone": "030 / 4092 - 201", "email": "gf@dominikus-berlin.de", "website": "http://www.dominikus-berlin.de", "comment": null, "lat": "52.62489", "lon": "13.29528"}, {"name": "Caritas-Klinik Maria Heimsuchung Berlin-Pankow", "type": "hospital", "street": "Breite Stra\u00dfe 46 / 47", "city": "Berlin", "postcode": "13187", "phone": "030 / 47517 - 201", "email": "verwaltungsdirektion@caritas-klinik-pankow.de", "website": "http://www.caritas-klinik-pankow.de", "comment": null, "lat": "52.5711356", "lon": "13.4145386"}, {"name": "Caritas-Klinik St. Marien", "type": "hospital", "street": "Bergstr. 1-3", "city": "Brandenburg", "postcode": "14770", "phone": "03381 / 366 - 300", "email": "b.hindorf@caritas-klinik-marien.de", "website": "https://caritas-klinik-marien.de/", "comment": null, "lat": "52.4143079", "lon": "12.5509689"}, {"name": "CaritasKlinikum Saarbr\u00fccken Standort St. Josef", "type": "hospital", "street": "Klosterstra\u00dfe 14", "city": "Saarbr\u00fccken", "postcode": "66125", "phone": "0681 / 406 - 2802", "email": "info@caritasklinikum.de", "website": "http://www.caritasklinikum.de", "comment": null, "lat": "49.277101", "lon": "7.042644"}, {"name": "CaritasKlinikum Saarbr\u00fccken Standort St. Theresia", "type": "hospital", "street": "Rheinstra\u00dfe 2", "city": "Saarbr\u00fccken", "postcode": "66113", "phone": "0681 / 406 - 2802", "email": "info@caritasklinikum.de", "website": "http://www.caritasklinikum.de", "comment": null, "lat": "49.24825", "lon": "6.95988"}, {"name": "Caritas-Krankenhaus Bad Mergentheim", "type": "hospital", "street": "Uhlandstra\u00dfe 7", "city": "Bad Mergentheim", "postcode": "97980", "phone": "07931 / 58 - 2006", "email": "michael.schuler@ckbm.de", "website": "http://www.ckbm.de", "comment": null, "lat": "49.4911", "lon": "9.7634"}, {"name": "Caritas-Krankenhaus Lebach", "type": "hospital", "street": "Heeresstrasse 49", "city": "Lebach", "postcode": "66822", "phone": "06881 / 501201", "email": "s.kowol@caritas-krankenhaus-lebach.de", "website": "http://www.caritas-krankenhaus-lebach.de/", "comment": null, "lat": "49.41921", "lon": "6.88929"}, {"name": "Caritas-Krankenhaus St. Josef", "type": "hospital", "street": "Landshuter Stra\u00dfe 65", "city": "Regensburg", "postcode": "93053", "phone": "0941 / 782 - 2030", "email": "sbauer@caritasstjosef.de", "website": "http://www.caritasstjosef.de/", "comment": null, "lat": "49.00758", "lon": "12.11845"}, {"name": "Carl-Thiem-Klinikum Cottbus gGmbH", "type": "hospital", "street": "Thiemstrasse 111", "city": "Cottbus", "postcode": "03048", "phone": "355 / 46 - 2026", "email": "k.auge@ctk.de", "website": "http://www.ctk.de", "comment": null, "lat": "51.7440719", "lon": "14.3248136"}, {"name": "Carl-von-Basedow-Klinikum Saalekreis gGmbH", "type": "hospital", "street": "Vor dem Nebraer Tor 11", "city": "Querfurt", "postcode": "06268", "phone": "03461 / 27 - 1001", "email": "l.heimann@klinikum-saalekreis.de", "website": "http://www.klinikum-saalekreis.de", "comment": null, "lat": "51.37298", "lon": "11.60721"}, {"name": "Carl-von-Basedow-Klinikum Saalekreis gGmbH", "type": "hospital", "street": "Wei\u00dfe Mauer 52", "city": "Merseburg", "postcode": "06217", "phone": "03461 / 27 - 1001", "email": "l.heimann@klinikum-saalekreis.de", "website": "http://www.klinikum-saalekreis.de", "comment": null, "lat": "51.36512", "lon": "11.99378"}, {"name": "Carl-von-Basedow-Klinikum Saalekreis gGmbH", "type": "hospital", "street": "Humboldtstra\u00dfe 31", "city": "Naumburg", "postcode": "06618", "phone": "03461 / 27 - 1001", "email": "l.heimann@klinikum-saalekreis.de", "website": "http://www.klinikum-saalekreis.de", "comment": null, "lat": "51.16142143338762", "lon": "11.81646999818637"}, {"name": "Centralklinik GmbH und Co. KG", "type": "hospital", "street": "Zerrennerstrasse 22-24", "city": "Pforzheim", "postcode": "75172", "phone": "07231 / 388 - 0", "email": "info@centralklinik.de", "website": "http://www.centralklinik.de", "comment": null, "lat": "48.89089", "lon": "8.69677"}, {"name": "Charit\u00e9 - Universit\u00e4tsmedizin Berlin", "type": "hospital", "street": "Charit\u00e9platz 1", "city": "Berlin", "postcode": "10117", "phone": "030 / 450570 - 151", "email": "ulrich.frei@charite.de", "website": "http://www.charite.de", "comment": null, "lat": "52.5236196", "lon": "13.3781374"}, {"name": "Charlottenklinik f\u00fcr Augenheilkunde", "type": "hospital", "street": "Falkertstra\u00dfe 50", "city": "Stuttgart", "postcode": "70176", "phone": "0711 / 6692 - 0", "email": "marie.schaefer@charlottenklinik.de", "website": "http://www.charlottenklinik.de", "comment": null, "lat": "48.7814731", "lon": "9.1625209"}, {"name": "Chirurgische Innenstadtklinik Minden GmbH & CO.KG", "type": "hospital", "street": "Br\u00fchlstra\u00dfe 33", "city": "Minden", "postcode": "32423", "phone": "0571 / 87000", "email": "dr.hoffmeister@innenstadtklinik.de", "website": "http://www.innenstadtklinik.de", "comment": null, "lat": "52.29691", "lon": "8.91753"}, {"name": "Chirurgische Klinik Dr. K\u00fcbel/ Dr. Albrecht/ Dr. G\u00fchring", "type": "hospital", "street": "Listplatz 1", "city": "Reutlingen", "postcode": "72764", "phone": "07121 / 3125 - 0", "email": "team@kronprinzenbau-klinik.de", "website": "http://www.kronprinzenbau-klinik.de", "comment": null, "lat": "48.4959295", "lon": "9.2102761"}, {"name": "Chirurgisches Klinikum M\u00fcnchen S\u00fcd GmbH &amp; Co. KG", "type": "hospital", "street": "Am Isarkanal 30", "city": "M\u00fcnchen", "postcode": "81379", "phone": "089 / 72440 - 229", "email": "tobias.weber@artemed.de", "website": "http://www.artemed.de/ckms/de/", "comment": null, "lat": "48.10302", "lon": "11.54857"}, {"name": "Christliches Kinderhospital Osnabr\u00fcck GmbH", "type": "hospital", "street": "Johannisfreiheit 1", "city": "Osnabr\u00fcck", "postcode": "49074", "phone": "0541 / 7000 - 6000", "email": "geschaeftsfuehrung@ckos.de", "website": "http://www.christliches-kinderhospital.de/", "comment": null, "lat": "52.2705425", "lon": "8.0524966"}, {"name": "Christliches Krankenhaus Quakenbr\u00fcck GmbH", "type": "hospital", "street": "Danziger Stra\u00dfe 2", "city": "Quakenbr\u00fcck", "postcode": "49610", "phone": "05431 / 15 - 1801", "email": "m.bitter@ckq-gmbh.de", "website": "http://www.ckq-gmbh.de", "comment": null, "lat": "52.66812", "lon": "7.93844"}, {"name": "Christophorus-Kliniken Coesfeld \u2013 D\u00fclmen \u2013 Nottuln, Standort Coesfeld", "type": "hospital", "street": "S\u00fcdring 41", "city": "Coesfeld", "postcode": "48653", "phone": "02541 / 8914040", "email": "geschaeftsfuehrung@ctc-coesfeld.de", "website": "http://www.christophorus-kliniken.de", "comment": null, "lat": "51.94376", "lon": "7.17033"}, {"name": "Christophorus-Kliniken Coesfeld \u2013 D\u00fclmen \u2013 Nottuln, Standort D\u00fclmen", "type": "hospital", "street": "Vollenstra\u00dfe 10", "city": "D\u00fclmen", "postcode": "48249", "phone": "02541 / 8914040", "email": "geschaeftsfuehrung@ctc-coesfeld.de", "website": "http://www.christophorus-kliniken.de", "comment": null, "lat": "51.82723", "lon": "7.27971"}, {"name": "Christophorus-Kliniken Coesfeld \u2013 D\u00fclmen \u2013 Nottuln, Standort Nottuln", "type": "hospital", "street": "Hagenstra\u00dfe 35", "city": "Nottuln", "postcode": "48301", "phone": "02541 / 8914040", "email": "geschaeftsfuehrung@ctc-coesfeld.de", "website": "http://www.christophorus-kliniken.de", "comment": null, "lat": "51.9334403", "lon": "7.35371"}, {"name": "CIP Klinik Dr. Schlemmer", "type": "hospital", "street": "Stefanie-von-Strechine-Str. 16", "city": "Bad T\u00f6lz", "postcode": "83646", "phone": "08041 / 8086 - 0", "email": "markus.reicherzer@klinik-schlemmer.de", "website": "http://www.klinik-schlemmer.de", "comment": null, "lat": "47.758117", "lon": "11.543901"}, {"name": "CIP Tagesklinik GmbH", "type": "hospital", "street": "Maria-Josepha-Stra\u00dfe 4", "city": "M\u00fcnchen", "postcode": "80802", "phone": "089 / 5506677 - 0", "email": "karin.koerber@cip-tagesklinik.de", "website": "http://www.cip-tagesklinik.de", "comment": null, "lat": "48.1581448", "lon": "11.5868588"}, {"name": "CJD Asthmazentrum Berchtesgaden", "type": "hospital", "street": "Buchenh\u00f6he 46", "city": "Berchtesgaden", "postcode": "83471", "phone": "08652 / 6000 - 160", "email": "gerd.schauerte@cjd.de", "website": "http://www.cjd-berchtesgaden.de", "comment": null, "lat": "47.6315636", "lon": "13.0642922"}, {"name": "CKIP", "type": "hospital", "street": "Hagelkreuzstr. 37", "city": "Hilden", "postcode": "40721", "phone": "02103 / 896 - 150", "email": "olaf.tkotsch@de.capio.vom", "website": null, "comment": null, "lat": "51.1640319", "lon": "6.9385459"}, {"name": "Clemens-August-Klinik", "type": "hospital", "street": "Wahlde 11", "city": "Neuenkirchen-V\u00f6rden", "postcode": "49434", "phone": "05493 / 504 - 317", "email": "info@clemensaugust.de", "website": "http://www.clemensaugust.de", "comment": null, "lat": "52.51188", "lon": "8.10505"}, {"name": "Clinic Dr. Decker GmbH", "type": "hospital", "street": "Seestra\u00dfe 10-12", "city": "M\u00fcnchen", "postcode": "80802", "phone": "089 / 381704 - 0", "email": "wolfgang.decker@clinic-dr-decker.de", "website": "http://www.clinic-dr-decker.de", "comment": null, "lat": "48.1587198", "lon": "11.5894542"}, {"name": "Cnopfsche Kinderklinik", "type": "hospital", "street": "Sankt-Johannis-M\u00fchlgasse 19", "city": "N\u00fcrnberg", "postcode": "90419", "phone": "0911 / 3340 - 5010", "email": "ingmar.leutung@diakoneo.de", "website": "http://www.cnopfsche-kinderklinik.de", "comment": null, "lat": "49.45692693338762", "lon": "11.06790569818637"}, {"name": "COLLM KLINIK OSCHATZ GmbH", "type": "hospital", "street": "Parkstra\u00dfe 1", "city": "Oschatz", "postcode": "04758", "phone": "03435 / 941001", "email": "strudel@collm-klinik-oschatz.de", "website": "http://www.collm-klinik-oschatz.de", "comment": null, "lat": "51.29284", "lon": "13.11365"}, {"name": "CURSCHMANN KLINIK der Klinikgruppe Dr. Guth GmbH & Co. KG", "type": "hospital", "street": "Saunaring 6", "city": "Timmendorfer Strand", "postcode": "23669", "phone": "040 / 34103 - 0", "email": "info@curschmannklinik.de", "website": "https://www.drguth.de/curschmann-klinik", "comment": null, "lat": "53.99802", "lon": "10.78365"}, {"name": "Curtius Klinik", "type": "hospital", "street": "Neue Kampstrasse 2", "city": "Bad Malente", "postcode": "23714", "phone": "04523 / 407 - 443", "email": "sekretariatgf@curtius-klinik.de", "website": "http://curtius-klinik.de", "comment": null, "lat": "54.171499", "lon": "10.5659558"}, {"name": "Cusanus Krankenhaus Bernkastel-Kues", "type": "hospital", "street": "Karl-Binz-Weg 12", "city": "Bernkastel-Kues", "postcode": "54470", "phone": "06571 / 1530015", "email": "u.schnell@verbund-krankenhaus.de", "website": "http://www.verbund-krankenhaus.de", "comment": null, "lat": "49.9160649", "lon": "7.0637816"}, {"name": "Dalberg Klinik Fulda", "type": "hospital", "street": "Dalbergstra\u00dfe 5", "city": "Fulda", "postcode": "36037", "phone": "0661 / 9753 - 60", "email": "juergen.vey@dalberg-klink.de", "website": "http://www.dalberg-klinik.de", "comment": null, "lat": "50.5494158", "lon": "9.6820621"},